[
{"latlon": "48.63534943,-1.51037872", "address": "\nGrande Rue, 50170 Le Mont-Saint-Michel, France\n", "url": "https://www.booking.com/hotel/fr/les-terrasses-poulard.fr.html?label=gen173nr-1FCAEoggI46AdIDVgEaBWIAQGYAQ24ARjIAQ_YAQHoAQH4AQKIAgGoAgS4Ap2NkJMGwAIB0gIkOTcxMjMxMjQtOWU1ZS00ZWY2LTk5NjAtMzUzNzg3N2QzMTBl2AIF4AIB&sid=3439b60092e6917d40d363dcb25052e7&aid=304142"},
{"latlon": "48.61424653,-1.51054502", "address": "\nLa Caserne, 50170 Le Mont-Saint-Michel, France\n", "url": "https://www.booking.com/hotel/fr/mont-saint-michel.fr.html?label=gen173nr-1FCAEoggI46AdIDVgEaBWIAQGYAQ24ARjIAQ_YAQHoAQH4AQKIAgGoAgS4Ap2NkJMGwAIB0gIkOTcxMjMxMjQtOWU1ZS00ZWY2LTk5NjAtMzUzNzg3N2QzMTBl2AIF4AIB&sid=3439b60092e6917d40d363dcb25052e7&aid=304142"},
{"latlon": "48.61758727,-1.51039615", "address": "\nLa Caserne, 50170 Le Mont-Saint-Michel, France\n", "url": "https://www.booking.com/hotel/fr/le-relais-saint-michel.fr.html?label=gen173nr-1FCAEoggI46AdIDVgEaBWIAQGYAQ24ARjIAQ_YAQHoAQH4AQKIAgGoAgS4Ap2NkJMGwAIB0gIkOTcxMjMxMjQtOWU1ZS00ZWY2LTk5NjAtMzUzNzg3N2QzMTBl2AIF4AIB&sid=3439b60092e6917d40d363dcb25052e7&aid=304142"},
{"latlon": "48.61688155,-1.51091784", "address": "\nLa Caserne, 50170 Le Mont-Saint-Michel, France\n", "url": "https://www.booking.com/hotel/fr/de-la-digue.fr.html?label=gen173nr-1FCAEoggI46AdIDVgEaBWIAQGYAQ24ARjIAQ_YAQHoAQH4AQKIAgGoAgS4Ap2NkJMGwAIB0gIkOTcxMjMxMjQtOWU1ZS00ZWY2LTk5NjAtMzUzNzg3N2QzMTBl2AIF4AIB&sid=3439b60092e6917d40d363dcb25052e7&aid=304142"},
{"latlon": "48.61538141,-1.51070997", "address": "\nRoute du Mont Saint Michel, 50170 Le Mont-Saint-Michel, France\n", "url": "https://www.booking.com/hotel/fr/hotel-gabriel.fr.html?label=gen173nr-1FCAEoggI46AdIDVgEaBWIAQGYAQ24ARjIAQ_YAQHoAQH4AQKIAgGoAgS4Ap2NkJMGwAIB0gIkOTcxMjMxMjQtOWU1ZS00ZWY2LTk5NjAtMzUzNzg3N2QzMTBl2AIF4AIB&sid=3439b60092e6917d40d363dcb25052e7&aid=304142"},
{"latlon": "48.63602298,-1.50989592", "address": "\nGrande Rue , 50170 Le Mont-Saint-Michel, France\n", "url": "https://www.booking.com/hotel/fr/le-mouton-blanc-le-mont-saint-michel.fr.html?label=gen173nr-1FCAEoggI46AdIDVgEaBWIAQGYAQ24ARjIAQ_YAQHoAQH4AQKIAgGoAgS4Ap2NkJMGwAIB0gIkOTcxMjMxMjQtOWU1ZS00ZWY2LTk5NjAtMzUzNzg3N2QzMTBl2AIF4AIB&sid=3439b60092e6917d40d363dcb25052e7&aid=304142"},
{"latlon": "48.63508532,-1.51053965", "address": "\nGrande Rue, 50170 Le Mont-Saint-Michel, France\n", "url": "https://www.booking.com/hotel/fr/la-mere-poulard.fr.html?label=gen173nr-1FCAEoggI46AdIDVgEaBWIAQGYAQ24ARjIAQ_YAQHoAQH4AQKIAgGoAgS4Ap2NkJMGwAIB0gIkOTcxMjMxMjQtOWU1ZS00ZWY2LTk5NjAtMzUzNzg3N2QzMTBl2AIF4AIB&sid=3439b60092e6917d40d363dcb25052e7&aid=304142"},
{"latlon": "48.61470049,-1.50961697", "address": "\nLa Caserne, 50170 Le Mont-Saint-Michel, France\n", "url": "https://www.booking.com/hotel/fr/vert.fr.html?label=gen173nr-1FCAEoggI46AdIDVgEaBWIAQGYAQ24ARjIAQ_YAQHoAQH4AQKIAgGoAgS4Ap2NkJMGwAIB0gIkOTcxMjMxMjQtOWU1ZS00ZWY2LTk5NjAtMzUzNzg3N2QzMTBl2AIF4AIB&sid=3439b60092e6917d40d363dcb25052e7&aid=304142"},
{"latlon": "48.63606300,-1.51145700", "address": "\nGrande Rue, 50170 Le Mont-Saint-Michel, France\n", "url": "https://www.booking.com/hotel/fr/la-vieille-auberge-le-mont-saint-michel.fr.html?label=gen173nr-1FCAEoggI46AdIDVgEaBWIAQGYAQ24ARjIAQ_YAQHoAQH4AQKIAgGoAgS4Ap2NkJMGwAIB0gIkOTcxMjMxMjQtOWU1ZS00ZWY2LTk5NjAtMzUzNzg3N2QzMTBl2AIF4AIB&sid=3439b60092e6917d40d363dcb25052e7&aid=304142"},
{"latlon": "48.59648217,-1.50314692", "address": "\n5 rue Grandelle, 50170 Beauvoir, France\n", "url": "https://www.booking.com/hotel/fr/residence-fleurdumont.fr.html?label=gen173nr-1FCAEoggI46AdIDVgEaBWIAQGYAQ24ARjIAQ_YAQHoAQH4AQKIAgGoAgS4Ap2NkJMGwAIB0gIkOTcxMjMxMjQtOWU1ZS00ZWY2LTk5NjAtMzUzNzg3N2QzMTBl2AIF4AIB&sid=3439b60092e6917d40d363dcb25052e7&aid=304142"},
{"latlon": "48.61293783,-1.51010513", "address": "\nLa Caserne, 50170 Le Mont-Saint-Michel, France\n", "url": "https://www.booking.com/hotel/fr/hotel-saint-aubert.fr.html?label=gen173nr-1FCAEoggI46AdIDVgEaBWIAQGYAQ24ARjIAQ_YAQHoAQH4AQKIAgGoAgS4Ap2NkJMGwAIB0gIkOTcxMjMxMjQtOWU1ZS00ZWY2LTk5NjAtMzUzNzg3N2QzMTBl2AIF4AIB&sid=3439b60092e6917d40d363dcb25052e7&aid=304142"},
{"latlon": "48.63573406,-1.50986105", "address": "\ngrande rue, 50170 Le Mont-Saint-Michel, France\n", "url": "https://www.booking.com/hotel/fr/ha-el-la-croix-blanche.fr.html?label=gen173nr-1FCAEoggI46AdIDVgEaBWIAQGYAQ24ARjIAQ_YAQHoAQH4AQKIAgGoAgS4Ap2NkJMGwAIB0gIkOTcxMjMxMjQtOWU1ZS00ZWY2LTk5NjAtMzUzNzg3N2QzMTBl2AIF4AIB&sid=3439b60092e6917d40d363dcb25052e7&aid=304142"},
{"latlon": "48.63568798,-1.50988251", "address": "\nGrande Rue, 50170 Le Mont-Saint-Michel, France\n", "url": "https://www.booking.com/hotel/fr/auberge-saint-pierre.fr.html?label=gen173nr-1FCAEoggI46AdIDVgEaBWIAQGYAQ24ARjIAQ_YAQHoAQH4AQKIAgGoAgS4Ap2NkJMGwAIB0gIkOTcxMjMxMjQtOWU1ZS00ZWY2LTk5NjAtMzUzNzg3N2QzMTBl2AIF4AIB&sid=3439b60092e6917d40d363dcb25052e7&aid=304142"},
{"latlon": "48.61626270,-1.51090577", "address": "\nLa Caserne, 50170 Le Mont-Saint-Michel, France\n", "url": "https://www.booking.com/hotel/fr/le-relais-du-roy.fr.html?label=gen173nr-1FCAEoggI46AdIDVgEaBWIAQGYAQ24ARjIAQ_YAQHoAQH4AQKIAgGoAgS4Ap2NkJMGwAIB0gIkOTcxMjMxMjQtOWU1ZS00ZWY2LTk5NjAtMzUzNzg3N2QzMTBl2AIF4AIB&sid=3439b60092e6917d40d363dcb25052e7&aid=304142"},
{"latlon": "48.61599318,-1.48825318", "address": "\nLa Rive \u2013 D275, 50170 Ardevon, France\n", "url": "https://www.booking.com/hotel/fr/auberge-de-la-baie.fr.html?label=gen173nr-1FCAEoggI46AdIDVgEaBWIAQGYAQ24ARjIAQ_YAQHoAQH4AQKIAgGoAgS4Ap2NkJMGwAIB0gIkOTcxMjMxMjQtOWU1ZS00ZWY2LTk5NjAtMzUzNzg3N2QzMTBl2AIF4AIB&sid=3439b60092e6917d40d363dcb25052e7&aid=304142"},
{"latlon": "48.60418750,-1.51159912", "address": "\nRoute du Mont Saint Michel, 50170 Beauvoir, France\n", "url": "https://www.booking.com/hotel/fr/chambres-d-ha-tes-les-vieilles-digues.fr.html?label=gen173nr-1FCAEoggI46AdIDVgEaBWIAQGYAQ24ARjIAQ_YAQHoAQH4AQKIAgGoAgS4Ap2NkJMGwAIB0gIkOTcxMjMxMjQtOWU1ZS00ZWY2LTk5NjAtMzUzNzg3N2QzMTBl2AIF4AIB&sid=3439b60092e6917d40d363dcb25052e7&aid=304142"},
{"latlon": "48.59771334,-1.51309848", "address": "\n9 Route du Mont Saint Michel, 50170 Beauvoir, France\n", "url": "https://www.booking.com/hotel/fr/le-beauvoir-beauvoir.fr.html?label=gen173nr-1FCAEoggI46AdIDVgEaBWIAQGYAQ24ARjIAQ_YAQHoAQH4AQKIAgGoAgS4Ap2NkJMGwAIB0gIkOTcxMjMxMjQtOWU1ZS00ZWY2LTk5NjAtMzUzNzg3N2QzMTBl2AIF4AIB&sid=3439b60092e6917d40d363dcb25052e7&aid=304142"},
{"latlon": "48.61411436,-1.50431424", "address": "\n\"La Jacotiere\" , 50170 Ardevon, France\n", "url": "https://www.booking.com/hotel/fr/la-jacotia-re.fr.html?label=gen173nr-1FCAEoggI46AdIDVgEaBWIAQGYAQ24ARjIAQ_YAQHoAQH4AQKIAgGoAgS4Ap2NkJMGwAIB0gIkOTcxMjMxMjQtOWU1ZS00ZWY2LTk5NjAtMzUzNzg3N2QzMTBl2AIF4AIB&sid=3439b60092e6917d40d363dcb25052e7&aid=304142"},
{"latlon": "48.61591354,-1.46560172", "address": "\n7 rue du Pont Landais, 50170 Huisnes-sur-Mer, France\n", "url": "https://www.booking.com/hotel/fr/a-l-ombre-du-mont-st-michel.fr.html?label=gen173nr-1FCAEoggI46AdIDVgEaBWIAQGYAQ24ARjIAQ_YAQHoAQH4AQKIAgGoAgS4Ap2NkJMGwAIB0gIkOTcxMjMxMjQtOWU1ZS00ZWY2LTk5NjAtMzUzNzg3N2QzMTBl2AIF4AIB&sid=3439b60092e6917d40d363dcb25052e7&aid=304142"},
{"latlon": "48.59706233,-1.51303947", "address": "\n5 Route Du Mont Saint Michel, 50170 Beauvoir, France\n", "url": "https://www.booking.com/hotel/fr/gue-de-beauvoir.fr.html?label=gen173nr-1FCAEoggI46AdIDVgEaBWIAQGYAQ24ARjIAQ_YAQHoAQH4AQKIAgGoAgS4Ap2NkJMGwAIB0gIkOTcxMjMxMjQtOWU1ZS00ZWY2LTk5NjAtMzUzNzg3N2QzMTBl2AIF4AIB&sid=3439b60092e6917d40d363dcb25052e7&aid=304142"},
{"latlon": "48.60851100,-1.45232600", "address": "\n8 rue de la grange \u00e0 dime, 50170 Huisnes-sur-Mer, France\n", "url": "https://www.booking.com/hotel/fr/la-casserole-de-la-baie.fr.html?label=gen173nr-1FCAEoggI46AdIDVgEaBWIAQGYAQ24ARjIAQ_YAQHoAQH4AQKIAgGoAgS4Ap2NkJMGwAIB0gIkOTcxMjMxMjQtOWU1ZS00ZWY2LTk5NjAtMzUzNzg3N2QzMTBl2AIF4AIB&sid=3439b60092e6917d40d363dcb25052e7&aid=304142"},
{"latlon": "48.55240292,-1.50712252", "address": "\n50 Boulevard Cl\u00e9menceau, 50170 Pontorson, France\n", "url": "https://www.booking.com/hotel/fr/ariane-pontorson.fr.html?label=gen173nr-1FCAEoggI46AdIDVgEaBWIAQGYAQ24ARjIAQ_YAQHoAQH4AQKIAgGoAgS4Ap2NkJMGwAIB0gIkOTcxMjMxMjQtOWU1ZS00ZWY2LTk5NjAtMzUzNzg3N2QzMTBl2AIF4AIB&sid=3439b60092e6917d40d363dcb25052e7&aid=304142"},
{"latlon": "48.59640422,-1.58920348", "address": "\nRue des 4 Salines, 35610 Roz-sur-Couesnon, France\n", "url": "https://www.booking.com/hotel/fr/lessalines.fr.html?label=gen173nr-1FCAEoggI46AdIDVgEaBWIAQGYAQ24ARjIAQ_YAQHoAQH4AQKIAgGoAgS4Ap2NkJMGwAIB0gIkOTcxMjMxMjQtOWU1ZS00ZWY2LTk5NjAtMzUzNzg3N2QzMTBl2AIF4AIB&sid=3439b60092e6917d40d363dcb25052e7&aid=304142"},
{"latlon": "48.55291070,-1.51148379", "address": "\n13, Rue Couesnon, 50170 Pontorson, France\n", "url": "https://www.booking.com/hotel/fr/montgomery.fr.html?label=gen173nr-1FCAEoggI46AdIDVgEaBWIAQGYAQ24ARjIAQ_YAQHoAQH4AQKIAgGoAgS4Ap2NkJMGwAIB0gIkOTcxMjMxMjQtOWU1ZS00ZWY2LTk5NjAtMzUzNzg3N2QzMTBl2AIF4AIB&sid=3439b60092e6917d40d363dcb25052e7&aid=304142"},
{"latlon": "48.59352509,-1.59637034", "address": "\nRoute de la Baie, L'H\u00f4pital, 35610 Roz-sur-Couesnon, France\n", "url": "https://www.booking.com/hotel/fr/et-residence-club-mmv-le-domaine-du-mont.fr.html?label=gen173nr-1FCAEoggI46AdIDVgEaBWIAQGYAQ24ARjIAQ_YAQHoAQH4AQKIAgGoAgS4Ap2NkJMGwAIB0gIkOTcxMjMxMjQtOWU1ZS00ZWY2LTk5NjAtMzUzNzg3N2QzMTBl2AIF4AIB&sid=3439b60092e6917d40d363dcb25052e7&aid=304142"},
{"latlon": "49.28464200,-0.71455100", "address": "\n26 Rue de Port en Bessin, 14400 Bayeux, France\n", "url": "https://www.booking.com/hotel/fr/gite-6-47-9-personnes-bayeux.fr.html?label=gen173nr-1FCAEoggI46AdIDVgEaBWIAQGYAQ24ARjIAQ_YAQHoAQH4AQKIAgGoAgS4Ap2NkJMGwAIB0gIkOTcxMjMxMjQtOWU1ZS00ZWY2LTk5NjAtMzUzNzg3N2QzMTBl2AIF4AIB&sid=3439b60092e6917d40d363dcb25052e7&aid=304142"},
{"latlon": "49.27232560,-0.69851010", "address": "\n20 rue de Cremel, 14400 Bayeux, France\n", "url": "https://www.booking.com/hotel/fr/domaine-de-bayeux.fr.html?label=gen173nr-1FCAEoggI46AdIDVgEaBWIAQGYAQ24ARjIAQ_YAQHoAQH4AQKIAgGoAgS4Ap2NkJMGwAIB0gIkOTcxMjMxMjQtOWU1ZS00ZWY2LTk5NjAtMzUzNzg3N2QzMTBl2AIF4AIB&sid=3439b60092e6917d40d363dcb25052e7&aid=304142"},
{"latlon": "49.25424209,-0.64648747", "address": "\nZone d'Activit\u00e9 de Nonant, rue des Longues Haies, 14400 Bayeux, France\n", "url": "https://www.booking.com/hotel/fr/etap-bayeux.fr.html?label=gen173nr-1FCAEoggI46AdIDVgEaBWIAQGYAQ24ARjIAQ_YAQHoAQH4AQKIAgGoAgS4Ap2NkJMGwAIB0gIkOTcxMjMxMjQtOWU1ZS00ZWY2LTk5NjAtMzUzNzg3N2QzMTBl2AIF4AIB&sid=3439b60092e6917d40d363dcb25052e7&aid=304142"},
{"latlon": "49.26974024,-0.68883955", "address": "\n49, Rue de Bellefontaine, 14400 Bayeux, France\n", "url": "https://www.booking.com/hotel/fr/chateau-de-bellefontaine.fr.html?label=gen173nr-1FCAEoggI46AdIDVgEaBWIAQGYAQ24ARjIAQ_YAQHoAQH4AQKIAgGoAgS4Ap2NkJMGwAIB0gIkOTcxMjMxMjQtOWU1ZS00ZWY2LTk5NjAtMzUzNzg3N2QzMTBl2AIF4AIB&sid=3439b60092e6917d40d363dcb25052e7&aid=304142"},
{"latlon": "49.27815769,-0.70351392", "address": "\n9 Rue Genas-Duhomme, 14400 Bayeux, France\n", "url": "https://www.booking.com/hotel/fr/hoteldebrunville.fr.html?label=gen173nr-1FCAEoggI46AdIDVgEaBWIAQGYAQ24ARjIAQ_YAQHoAQH4AQKIAgGoAgS4Ap2NkJMGwAIB0gIkOTcxMjMxMjQtOWU1ZS00ZWY2LTk5NjAtMzUzNzg3N2QzMTBl2AIF4AIB&sid=3439b60092e6917d40d363dcb25052e7&aid=304142"},
{"latlon": "49.27603159,-0.70172489", "address": "\n23 Rue Larcher, 14400 Bayeux, France\n", "url": "https://www.booking.com/hotel/fr/reine-mathilde-bayeux.fr.html?label=gen173nr-1FCAEoggI46AdIDVgEaBWIAQGYAQ24ARjIAQ_YAQHoAQH4AQKIAgGoAgS4Ap2NkJMGwAIB0gIkOTcxMjMxMjQtOWU1ZS00ZWY2LTk5NjAtMzUzNzg3N2QzMTBl2AIF4AIB&sid=3439b60092e6917d40d363dcb25052e7&aid=304142"},
{"latlon": "49.27368314,-0.70322692", "address": "\n1 Boulevard Sadi Carnot, 14400 Bayeux, France\n", "url": "https://www.booking.com/hotel/fr/le-castel-noble-guesthouse.fr.html?label=gen173nr-1FCAEoggI46AdIDVgEaBWIAQGYAQ24ARjIAQ_YAQHoAQH4AQKIAgGoAgS4Ap2NkJMGwAIB0gIkOTcxMjMxMjQtOWU1ZS00ZWY2LTk5NjAtMzUzNzg3N2QzMTBl2AIF4AIB&sid=3439b60092e6917d40d363dcb25052e7&aid=304142"},
{"latlon": "49.27627832,-0.69836944", "address": "\n71 Rue Saint Jean, 14400 Bayeux, France\n", "url": "https://www.booking.com/hotel/fr/le-lion-d-or-bayeux.fr.html?label=gen173nr-1FCAEoggI46AdIDVgEaBWIAQGYAQ24ARjIAQ_YAQHoAQH4AQKIAgGoAgS4Ap2NkJMGwAIB0gIkOTcxMjMxMjQtOWU1ZS00ZWY2LTk5NjAtMzUzNzg3N2QzMTBl2AIF4AIB&sid=3439b60092e6917d40d363dcb25052e7&aid=304142"},
{"latlon": "49.27279800,-0.70755600", "address": "\n45 Rue Saint-Loup, 14400 Bayeux, France\n", "url": "https://www.booking.com/hotel/fr/au-loup-historic-apartments-bayeux.fr.html?label=gen173nr-1FCAEoggI46AdIDVgEaBWIAQGYAQ24ARjIAQ_YAQHoAQH4AQKIAgGoAgS4Ap2NkJMGwAIB0gIkOTcxMjMxMjQtOWU1ZS00ZWY2LTk5NjAtMzUzNzg3N2QzMTBl2AIF4AIB&sid=3439b60092e6917d40d363dcb25052e7&aid=304142"},
{"latlon": "49.27796400,-0.70167700", "address": "\n16 Rue des Bouchers, 14400 Bayeux, France\n", "url": "https://www.booking.com/hotel/fr/particulier-quot-le-clos-de-la-croix-quot.fr.html?label=gen173nr-1FCAEoggI46AdIDVgEaBWIAQGYAQ24ARjIAQ_YAQHoAQH4AQKIAgGoAgS4Ap2NkJMGwAIB0gIkOTcxMjMxMjQtOWU1ZS00ZWY2LTk5NjAtMzUzNzg3N2QzMTBl2AIF4AIB&sid=3439b60092e6917d40d363dcb25052e7&aid=304142"},
{"latlon": "49.24936600,-0.71246900", "address": "\n80, rue de la Mairie, Gu\u00e9ron, 14400 Bayeux, France\n", "url": "https://www.booking.com/hotel/fr/chateau-saint-gilles.fr.html?label=gen173nr-1FCAEoggI46AdIDVgEaBWIAQGYAQ24ARjIAQ_YAQHoAQH4AQKIAgGoAgS4Ap2NkJMGwAIB0gIkOTcxMjMxMjQtOWU1ZS00ZWY2LTk5NjAtMzUzNzg3N2QzMTBl2AIF4AIB&sid=3439b60092e6917d40d363dcb25052e7&aid=304142"},
{"latlon": "49.25200360,-0.66984770", "address": "\n14 Rue des Brunelles, 14400 Bayeux, France\n", "url": "https://www.booking.com/hotel/fr/logis-du-grand-pin.fr.html?label=gen173nr-1FCAEoggI46AdIDVgEaBWIAQGYAQ24ARjIAQ_YAQHoAQH4AQKIAgGoAgS4Ap2NkJMGwAIB0gIkOTcxMjMxMjQtOWU1ZS00ZWY2LTk5NjAtMzUzNzg3N2QzMTBl2AIF4AIB&sid=3439b60092e6917d40d363dcb25052e7&aid=304142"},
{"latlon": "49.28256300,-0.67736300", "address": "\nSt Vigor le Grand Route de Caugy, 14400 Bayeux, France\n", "url": "https://www.booking.com/hotel/fr/domaine-du-grand-caugy.fr.html?label=gen173nr-1FCAEoggI46AdIDVgEaBWIAQGYAQ24ARjIAQ_YAQHoAQH4AQKIAgGoAgS4Ap2NkJMGwAIB0gIkOTcxMjMxMjQtOWU1ZS00ZWY2LTk5NjAtMzUzNzg3N2QzMTBl2AIF4AIB&sid=3439b60092e6917d40d363dcb25052e7&aid=304142"},
{"latlon": "49.27643410,-0.69997250", "address": "\n32 Rue Saint-Jean, 14400 Bayeux, France\n", "url": "https://www.booking.com/hotel/fr/appartement-centre-ville-bayeux-tout-a-pied-bayeux.fr.html?label=gen173nr-1FCAEoggI46AdIDVgEaBWIAQGYAQ24ARjIAQ_YAQHoAQH4AQKIAgGoAgS4Ap2NkJMGwAIB0gIkOTcxMjMxMjQtOWU1ZS00ZWY2LTk5NjAtMzUzNzg3N2QzMTBl2AIF4AIB&sid=3439b60092e6917d40d363dcb25052e7&aid=304142"},
{"latlon": "49.27631225,-0.70026888", "address": "\n26 rue saint jean, 14400 Bayeux, France\n", "url": "https://www.booking.com/hotel/fr/largo.fr.html?label=gen173nr-1FCAEoggI46AdIDVgEaBWIAQGYAQ24ARjIAQ_YAQHoAQH4AQKIAgGoAgS4Ap2NkJMGwAIB0gIkOTcxMjMxMjQtOWU1ZS00ZWY2LTk5NjAtMzUzNzg3N2QzMTBl2AIF4AIB&sid=3439b60092e6917d40d363dcb25052e7&aid=304142"},
{"latlon": "49.27415914,-0.70450634", "address": "\n9 Rue Tardif, 14400 Bayeux, France\n", "url": "https://www.booking.com/hotel/fr/le-bayeux.fr.html?label=gen173nr-1FCAEoggI46AdIDVgEaBWIAQGYAQ24ARjIAQ_YAQHoAQH4AQKIAgGoAgS4Ap2NkJMGwAIB0gIkOTcxMjMxMjQtOWU1ZS00ZWY2LTk5NjAtMzUzNzg3N2QzMTBl2AIF4AIB&sid=3439b60092e6917d40d363dcb25052e7&aid=304142"},
{"latlon": "49.27646775,-0.70556582", "address": "\n3 Rue Des Ursulines, 14400 Bayeux, France\n", "url": "https://www.booking.com/hotel/fr/appartement-des-ursulines.fr.html?label=gen173nr-1FCAEoggI46AdIDVgEaBWIAQGYAQ24ARjIAQ_YAQHoAQH4AQKIAgGoAgS4Ap2NkJMGwAIB0gIkOTcxMjMxMjQtOWU1ZS00ZWY2LTk5NjAtMzUzNzg3N2QzMTBl2AIF4AIB&sid=3439b60092e6917d40d363dcb25052e7&aid=304142"},
{"latlon": "49.27267164,-0.69486111", "address": "\n6 rue Bellefontaine, 14400 Bayeux, France\n", "url": "https://www.booking.com/hotel/fr/chambres-d-ha-tes-clos-de-bellefontaine-bayeux.fr.html?label=gen173nr-1FCAEoggI46AdIDVgEaBWIAQGYAQ24ARjIAQ_YAQHoAQH4AQKIAgGoAgS4Ap2NkJMGwAIB0gIkOTcxMjMxMjQtOWU1ZS00ZWY2LTk5NjAtMzUzNzg3N2QzMTBl2AIF4AIB&sid=3439b60092e6917d40d363dcb25052e7&aid=304142"},
{"latlon": "49.27606133,-0.70905536", "address": "\n9 rue des terres - Place Charles de Gaulle, 14400 Bayeux, France\n", "url": "https://www.booking.com/hotel/fr/le-petit-matin.fr.html?label=gen173nr-1FCAEoggI46AdIDVgEaBWIAQGYAQ24ARjIAQ_YAQHoAQH4AQKIAgGoAgS4Ap2NkJMGwAIB0gIkOTcxMjMxMjQtOWU1ZS00ZWY2LTk5NjAtMzUzNzg3N2QzMTBl2AIF4AIB&sid=3439b60092e6917d40d363dcb25052e7&aid=304142"},
{"latlon": "49.27990374,-0.70877506", "address": "\n12 rue du March\u00e9 Place Saint Patrice, 14400 Bayeux, France\n", "url": "https://www.booking.com/hotel/fr/de-sainte-croix.fr.html?label=gen173nr-1FCAEoggI46AdIDVgEaBWIAQGYAQ24ARjIAQ_YAQHoAQH4AQKIAgGoAgS4Ap2NkJMGwAIB0gIkOTcxMjMxMjQtOWU1ZS00ZWY2LTk5NjAtMzUzNzg3N2QzMTBl2AIF4AIB&sid=3439b60092e6917d40d363dcb25052e7&aid=304142"},
{"latlon": "49.27981023,-0.71067492", "address": "\n30 Rue St Patrice, 14400 Bayeux, France\n", "url": "https://www.booking.com/hotel/fr/saint-patrice.fr.html?label=gen173nr-1FCAEoggI46AdIDVgEaBWIAQGYAQ24ARjIAQ_YAQHoAQH4AQKIAgGoAgS4Ap2NkJMGwAIB0gIkOTcxMjMxMjQtOWU1ZS00ZWY2LTk5NjAtMzUzNzg3N2QzMTBl2AIF4AIB&sid=3439b60092e6917d40d363dcb25052e7&aid=304142"},
{"latlon": "49.27971200,-0.70978000", "address": "\n1 Rue du Docteur Guillet, 14400 Bayeux, France\n", "url": "https://www.booking.com/hotel/fr/ike-39-s-apartment.fr.html?label=gen173nr-1FCAEoggI46AdIDVgEaBWIAQGYAQ24ARjIAQ_YAQHoAQH4AQKIAgGoAgS4Ap2NkJMGwAIB0gIkOTcxMjMxMjQtOWU1ZS00ZWY2LTk5NjAtMzUzNzg3N2QzMTBl2AIF4AIB&sid=3439b60092e6917d40d363dcb25052e7&aid=304142"},
{"latlon": "49.27842191,-0.70329666", "address": "\n25 Rue Des Bouchers, 14400 Bayeux, France\n", "url": "https://www.booking.com/hotel/fr/hotelduluxembourg.fr.html?label=gen173nr-1FCAEoggI46AdIDVgEaBWIAQGYAQ24ARjIAQ_YAQHoAQH4AQKIAgGoAgS4Ap2NkJMGwAIB0gIkOTcxMjMxMjQtOWU1ZS00ZWY2LTk5NjAtMzUzNzg3N2QzMTBl2AIF4AIB&sid=3439b60092e6917d40d363dcb25052e7&aid=304142"},
{"latlon": "49.28082623,-0.69080722", "address": "\nSaint-Vigor-le-Grand 13 Rue de Courseulles, 14400 Bayeux, France\n", "url": "https://www.booking.com/hotel/fr/l-39-ecole-buissonniere-bayeux.fr.html?label=gen173nr-1FCAEoggI46AdIDVgEaBWIAQGYAQ24ARjIAQ_YAQHoAQH4AQKIAgGoAgS4Ap2NkJMGwAIB0gIkOTcxMjMxMjQtOWU1ZS00ZWY2LTk5NjAtMzUzNzg3N2QzMTBl2AIF4AIB&sid=3439b60092e6917d40d363dcb25052e7&aid=304142"},
{"latlon": "48.64961100,-2.02430338", "address": "\n4 Place De La Poissonnerie, Intra muros, 35400 Saint-Malo, France\n", "url": "https://www.booking.com/hotel/fr/bristol-union.fr.html?label=gen173nr-1FCAEoggI46AdIDVgEaBWIAQGYAQ24ARjIAQ_YAQHoAQH4AQKIAgGoAgS4Ap2NkJMGwAIB0gIkOTcxMjMxMjQtOWU1ZS00ZWY2LTk5NjAtMzUzNzg3N2QzMTBl2AIF4AIB&sid=3439b60092e6917d40d363dcb25052e7&aid=304142"},
{"latlon": "49.27905535,-0.70856206", "address": "\n25 Rue Saint Patrice, 14400 Bayeux, France\n", "url": "https://www.booking.com/hotel/fr/immolidays.fr.html?label=gen173nr-1FCAEoggI46AdIDVgEaBWIAQGYAQ24ARjIAQ_YAQHoAQH4AQKIAgGoAgS4Ap2NkJMGwAIB0gIkOTcxMjMxMjQtOWU1ZS00ZWY2LTk5NjAtMzUzNzg3N2QzMTBl2AIF4AIB&sid=3439b60092e6917d40d363dcb25052e7&aid=304142"},
{"latlon": "48.66190919,-1.98966533", "address": "\n1 rue de l'Etang, Param\u00e9, 35400 Saint-Malo, France\n", "url": "https://www.booking.com/hotel/fr/eden-saint-malo.fr.html?label=gen173nr-1FCAEoggI46AdIDVgEaBWIAQGYAQ24ARjIAQ_YAQHoAQH4AQKIAgGoAgS4Ap2NkJMGwAIB0gIkOTcxMjMxMjQtOWU1ZS00ZWY2LTk5NjAtMzUzNzg3N2QzMTBl2AIF4AIB&sid=3439b60092e6917d40d363dcb25052e7&aid=304142"},
{"latlon": "48.64793200,-2.02865100", "address": "\n4, Place du Guet, Intra muros, 35400 Saint-Malo, France\n", "url": "https://www.booking.com/hotel/fr/les-chiens-du-guet.fr.html?label=gen173nr-1FCAEoggI46AdIDVgEaBWIAQGYAQ24ARjIAQ_YAQHoAQH4AQKIAgGoAgS4Ap2NkJMGwAIB0gIkOTcxMjMxMjQtOWU1ZS00ZWY2LTk5NjAtMzUzNzg3N2QzMTBl2AIF4AIB&sid=3439b60092e6917d40d363dcb25052e7&aid=304142"},
{"latlon": "48.63593081,-2.02171236", "address": "\n2 rue Des Hauts Sablons, 35400 Saint-Malo, France\n", "url": "https://www.booking.com/hotel/fr/d-aleth.fr.html?label=gen173nr-1FCAEoggI46AdIDVgEaBWIAQGYAQ24ARjIAQ_YAQHoAQH4AQKIAgGoAgS4Ap2NkJMGwAIB0gIkOTcxMjMxMjQtOWU1ZS00ZWY2LTk5NjAtMzUzNzg3N2QzMTBl2AIF4AIB&sid=3439b60092e6917d40d363dcb25052e7&aid=304142"},
{"latlon": "48.64735692,-2.02519655", "address": "\n10 rue des Forgeurs, Intra muros, 35400 Saint-Malo, France\n", "url": "https://www.booking.com/hotel/fr/ajoncsdor.fr.html?label=gen173nr-1FCAEoggI46AdIDVgEaBWIAQGYAQ24ARjIAQ_YAQHoAQH4AQKIAgGoAgS4Ap2NkJMGwAIB0gIkOTcxMjMxMjQtOWU1ZS00ZWY2LTk5NjAtMzUzNzg3N2QzMTBl2AIF4AIB&sid=3439b60092e6917d40d363dcb25052e7&aid=304142"},
{"latlon": "48.66913503,-1.98354185", "address": "\n65/67 Avenue John Fitzgerald Kennedy, 35400 Saint-Malo, France\n", "url": "https://www.booking.com/hotel/fr/residence-reine-marine.fr.html?label=gen173nr-1FCAEoggI46AdIDVgEaBWIAQGYAQ24ARjIAQ_YAQHoAQH4AQKIAgGoAgS4Ap2NkJMGwAIB0gIkOTcxMjMxMjQtOWU1ZS00ZWY2LTk5NjAtMzUzNzg3N2QzMTBl2AIF4AIB&sid=3439b60092e6917d40d363dcb25052e7&aid=304142"},
{"latlon": "48.62802437,-1.97798415", "address": "\nRue des Mauriers, 35400 Saint-Malo, France\n", "url": "https://www.booking.com/hotel/fr/le-domaine-des-mauriers.fr.html?label=gen173nr-1FCAEoggI46AdIDVgEaBWIAQGYAQ24ARjIAQ_YAQHoAQH4AQKIAgGoAgS4Ap2NkJMGwAIB0gIkOTcxMjMxMjQtOWU1ZS00ZWY2LTk5NjAtMzUzNzg3N2QzMTBl2AIF4AIB&sid=3439b60092e6917d40d363dcb25052e7&aid=304142"},
{"latlon": "48.66251330,-1.98893577", "address": "\n1 Boulevard Chateaubriand, Param\u00e9, 35400 Saint-Malo, France\n", "url": "https://www.booking.com/hotel/fr/la-rotonde-st-malo.fr.html?label=gen173nr-1FCAEoggI46AdIDVgEaBWIAQGYAQ24ARjIAQ_YAQHoAQH4AQKIAgGoAgS4Ap2NkJMGwAIB0gIkOTcxMjMxMjQtOWU1ZS00ZWY2LTk5NjAtMzUzNzg3N2QzMTBl2AIF4AIB&sid=3439b60092e6917d40d363dcb25052e7&aid=304142"},
{"latlon": "48.65104101,-2.02372670", "address": "\n12 Place Chateaubriand, Intra muros, 35400 Saint-Malo, France\n", "url": "https://www.booking.com/hotel/fr/de-l-univers.fr.html?label=gen173nr-1FCAEoggI46AdIDVgEaBWIAQGYAQ24ARjIAQ_YAQHoAQH4AQKIAgGoAgS4Ap2NkJMGwAIB0gIkOTcxMjMxMjQtOWU1ZS00ZWY2LTk5NjAtMzUzNzg3N2QzMTBl2AIF4AIB&sid=3439b60092e6917d40d363dcb25052e7&aid=304142"},
{"latlon": "48.65773512,-1.99437261", "address": "\n17, avenue du R\u00e9v\u00e9rend P\u00e8re umbricht, Param\u00e9, 35400 Saint-Malo, France\n", "url": "https://www.booking.com/hotel/fr/le-surcouf.fr.html?label=gen173nr-1FCAEoggI46AdIDVgEaBWIAQGYAQ24ARjIAQ_YAQHoAQH4AQKIAgGoAgS4Ap2NkJMGwAIB0gIkOTcxMjMxMjQtOWU1ZS00ZWY2LTk5NjAtMzUzNzg3N2QzMTBl2AIF4AIB&sid=3439b60092e6917d40d363dcb25052e7&aid=304142"},
{"latlon": "48.63962614,-2.01236531", "address": "\n6-8 Quai du Val, 35400 Saint-Malo, France\n", "url": "https://www.booking.com/hotel/fr/ibis-styles-saint-malo-port.fr.html?label=gen173nr-1FCAEoggI46AdIDVgEaBWIAQGYAQ24ARjIAQ_YAQHoAQH4AQKIAgGoAgS4Ap2NkJMGwAIB0gIkOTcxMjMxMjQtOWU1ZS00ZWY2LTk5NjAtMzUzNzg3N2QzMTBl2AIF4AIB&sid=3439b60092e6917d40d363dcb25052e7&aid=304142"},
{"latlon": "48.65072706,-2.02494547", "address": "\n9, rue de la corne de cerf, Intra muros, 35400 Saint-Malo, France\n", "url": "https://www.booking.com/hotel/fr/le-nautilus.fr.html?label=gen173nr-1FCAEoggI46AdIDVgEaBWIAQGYAQ24ARjIAQ_YAQHoAQH4AQKIAgGoAgS4Ap2NkJMGwAIB0gIkOTcxMjMxMjQtOWU1ZS00ZWY2LTk5NjAtMzUzNzg3N2QzMTBl2AIF4AIB&sid=3439b60092e6917d40d363dcb25052e7&aid=304142"},
{"latlon": "48.65224772,-2.01142341", "address": "\nAngle Place Duguesclin and Quai Duguay Trouin, Sillon, 35400 Saint-Malo, France\n", "url": "https://www.booking.com/hotel/fr/aubade.fr.html?label=gen173nr-1FCAEoggI46AdIDVgEaBWIAQGYAQ24ARjIAQ_YAQHoAQH4AQKIAgGoAgS4Ap2NkJMGwAIB0gIkOTcxMjMxMjQtOWU1ZS00ZWY2LTk5NjAtMzUzNzg3N2QzMTBl2AIF4AIB&sid=3439b60092e6917d40d363dcb25052e7&aid=304142"},
{"latlon": "48.64713800,-2.00880500", "address": "\n3 Rue Alphonse Th\u00e9bault, 35400 Saint-Malo, France\n", "url": "https://www.booking.com/hotel/fr/ker-annick.fr.html?label=gen173nr-1FCAEoggI46AdIDVgEaBWIAQGYAQ24ARjIAQ_YAQHoAQH4AQKIAgGoAgS4Ap2NkJMGwAIB0gIkOTcxMjMxMjQtOWU1ZS00ZWY2LTk5NjAtMzUzNzg3N2QzMTBl2AIF4AIB&sid=3439b60092e6917d40d363dcb25052e7&aid=304142"},
{"latlon": "48.65428009,-2.00883776", "address": "\n76 Chauss\u00e9e du Sillon, Sillon, 35400 Saint-Malo, France\n", "url": "https://www.booking.com/hotel/fr/mascottesaintmalo.fr.html?label=gen173nr-1FCAEoggI46AdIDVgEaBWIAQGYAQ24ARjIAQ_YAQHoAQH4AQKIAgGoAgS4Ap2NkJMGwAIB0gIkOTcxMjMxMjQtOWU1ZS00ZWY2LTk5NjAtMzUzNzg3N2QzMTBl2AIF4AIB&sid=3439b60092e6917d40d363dcb25052e7&aid=304142"},
{"latlon": "48.65001325,-2.02483177", "address": "\n1, Rue de la Corne de Cerf, Intra muros, 35400 Saint-Malo, France\n", "url": "https://www.booking.com/hotel/fr/cartier.fr.html?label=gen173nr-1FCAEoggI46AdIDVgEaBWIAQGYAQ24ARjIAQ_YAQHoAQH4AQKIAgGoAgS4Ap2NkJMGwAIB0gIkOTcxMjMxMjQtOWU1ZS00ZWY2LTk5NjAtMzUzNzg3N2QzMTBl2AIF4AIB&sid=3439b60092e6917d40d363dcb25052e7&aid=304142"},
{"latlon": "48.65342427,-2.01143146", "address": "\n64, Chauss\u00e9e du Sillon, Sillon, 35400 Saint-Malo, France\n", "url": "https://www.booking.com/hotel/fr/ha-tel-le-nouveau-monde.fr.html?label=gen173nr-1FCAEoggI46AdIDVgEaBWIAQGYAQ24ARjIAQ_YAQHoAQH4AQKIAgGoAgS4Ap2NkJMGwAIB0gIkOTcxMjMxMjQtOWU1ZS00ZWY2LTk5NjAtMzUzNzg3N2QzMTBl2AIF4AIB&sid=3439b60092e6917d40d363dcb25052e7&aid=304142"},
{"latlon": "48.65537970,-2.00327690", "address": "\n2 Rue du Colonel le Ny, Sillon, 35400 Saint-Malo, France\n", "url": "https://www.booking.com/hotel/fr/studio-cocooning-saint-malo.fr.html?label=gen173nr-1FCAEoggI46AdIDVgEaBWIAQGYAQ24ARjIAQ_YAQHoAQH4AQKIAgGoAgS4Ap2NkJMGwAIB0gIkOTcxMjMxMjQtOWU1ZS00ZWY2LTk5NjAtMzUzNzg3N2QzMTBl2AIF4AIB&sid=3439b60092e6917d40d363dcb25052e7&aid=304142"},
{"latlon": "48.68090550,-1.96799200", "address": "\n16 Place du Canada, Rotheneuf, 35400 Saint-Malo, France\n", "url": "https://www.booking.com/hotel/fr/la-hune-saint-malo.fr.html?label=gen173nr-1FCAEoggI46AdIDVgEaBWIAQGYAQ24ARjIAQ_YAQHoAQH4AQKIAgGoAgS4Ap2NkJMGwAIB0gIkOTcxMjMxMjQtOWU1ZS00ZWY2LTk5NjAtMzUzNzg3N2QzMTBl2AIF4AIB&sid=3439b60092e6917d40d363dcb25052e7&aid=304142"},
{"latlon": "48.64481252,-1.95936144", "address": "\nLa Barbinais, 35400 Saint-Malo, France\n", "url": "https://www.booking.com/hotel/fr/domaine-de-la-barbinais.fr.html?label=gen173nr-1FCAEoggI46AdIDVgEaBWIAQGYAQ24ARjIAQ_YAQHoAQH4AQKIAgGoAgS4Ap2NkJMGwAIB0gIkOTcxMjMxMjQtOWU1ZS00ZWY2LTk5NjAtMzUzNzg3N2QzMTBl2AIF4AIB&sid=3439b60092e6917d40d363dcb25052e7&aid=304142"},
{"latlon": "48.64880649,-2.02491224", "address": "\n2, Rue des Marins, Intra muros, 35400 Saint-Malo, France\n", "url": "https://www.booking.com/hotel/fr/dulouvresaintmalo.fr.html?label=gen173nr-1FCAEoggI46AdIDVgEaBWIAQGYAQ24ARjIAQ_YAQHoAQH4AQKIAgGoAgS4Ap2NkJMGwAIB0gIkOTcxMjMxMjQtOWU1ZS00ZWY2LTk5NjAtMzUzNzg3N2QzMTBl2AIF4AIB&sid=3439b60092e6917d40d363dcb25052e7&aid=304142"},
{"latlon": "48.65770146,-1.99967265", "address": "\n100 Bd Hebert - Grande Plage du Sillon, Sillon, 35400 Saint-Malo, France\n", "url": "https://www.booking.com/hotel/fr/residence-neptunia.fr.html?label=gen173nr-1FCAEoggI46AdIDVgEaBWIAQGYAQ24ARjIAQ_YAQHoAQH4AQKIAgGoAgS4Ap2NkJMGwAIB0gIkOTcxMjMxMjQtOWU1ZS00ZWY2LTk5NjAtMzUzNzg3N2QzMTBl2AIF4AIB&sid=3439b60092e6917d40d363dcb25052e7&aid=304142"},
{"latlon": "48.64956493,-2.02441603", "address": "\n2, Place De La Poissonnerie, Intra muros, 35400 Saint-Malo, France\n", "url": "https://www.booking.com/hotel/fr/le-croiseur.fr.html?label=gen173nr-1FCAEoggI46AdIDVgEaBWIAQGYAQ24ARjIAQ_YAQHoAQH4AQKIAgGoAgS4Ap2NkJMGwAIB0gIkOTcxMjMxMjQtOWU1ZS00ZWY2LTk5NjAtMzUzNzg3N2QzMTBl2AIF4AIB&sid=3439b60092e6917d40d363dcb25052e7&aid=304142"},
{"latlon": "48.65570400,-2.00469800", "address": "\n61 chauss\u00e9e du sillon, Sillon, 35400 Saint-Malo, France\n", "url": "https://www.booking.com/hotel/fr/l-39-artimon.fr.html?label=gen173nr-1FCAEoggI46AdIDVgEaBWIAQGYAQ24ARjIAQ_YAQHoAQH4AQKIAgGoAgS4Ap2NkJMGwAIB0gIkOTcxMjMxMjQtOWU1ZS00ZWY2LTk5NjAtMzUzNzg3N2QzMTBl2AIF4AIB&sid=3439b60092e6917d40d363dcb25052e7&aid=304142"},
{"latlon": "48.62597716,-1.99032784", "address": "\nAvenue du General De Gaulle / Impasse de La Peupleraie, 35400 Saint-Malo, France\n", "url": "https://www.booking.com/hotel/fr/ibis-saint-malo-madeleine.fr.html?label=gen173nr-1FCAEoggI46AdIDVgEaBWIAQGYAQ24ARjIAQ_YAQHoAQH4AQKIAgGoAgS4Ap2NkJMGwAIB0gIkOTcxMjMxMjQtOWU1ZS00ZWY2LTk5NjAtMzUzNzg3N2QzMTBl2AIF4AIB&sid=3439b60092e6917d40d363dcb25052e7&aid=304142"},
{"latlon": "49.89167620,2.30775386", "address": "\n10 Boulevard Alsace Lorraine, 80000 Amiens, France\n", "url": "https://www.booking.com/hotel/fr/express-by-holiday-inn.fr.html?label=gen173nr-1FCAEoggI46AdIDVgEaBWIAQGYAQ24ARjIAQ_YAQHoAQH4AQKIAgGoAgS4Ap2NkJMGwAIB0gIkOTcxMjMxMjQtOWU1ZS00ZWY2LTk5NjAtMzUzNzg3N2QzMTBl2AIF4AIB&sid=3439b60092e6917d40d363dcb25052e7&aid=304142"},
{"latlon": "49.89444519,2.30094239", "address": "\n17 Rue Porion, 80000 Amiens, France\n", "url": "https://www.booking.com/hotel/fr/le-prieure-amiens.fr.html?label=gen173nr-1FCAEoggI46AdIDVgEaBWIAQGYAQ24ARjIAQ_YAQHoAQH4AQKIAgGoAgS4Ap2NkJMGwAIB0gIkOTcxMjMxMjQtOWU1ZS00ZWY2LTk5NjAtMzUzNzg3N2QzMTBl2AIF4AIB&sid=3439b60092e6917d40d363dcb25052e7&aid=304142"},
{"latlon": "49.92513403,2.30457276", "address": "\nZac St Ladre - Rue le Greco, 80085 Amiens, France\n", "url": "https://www.booking.com/hotel/fr/kyriad-amiens-nord-xml.fr.html?label=gen173nr-1FCAEoggI46AdIDVgEaBWIAQGYAQ24ARjIAQ_YAQHoAQH4AQKIAgGoAgS4Ap2NkJMGwAIB0gIkOTcxMjMxMjQtOWU1ZS00ZWY2LTk5NjAtMzUzNzg3N2QzMTBl2AIF4AIB&sid=3439b60092e6917d40d363dcb25052e7&aid=304142"},
{"latlon": "49.89422900,2.30577800", "address": "\n8 Rue des Augustins, 80000 Amiens, France\n", "url": "https://www.booking.com/hotel/fr/les-augustins-amiens.fr.html?label=gen173nr-1FCAEoggI46AdIDVgEaBWIAQGYAQ24ARjIAQ_YAQHoAQH4AQKIAgGoAgS4Ap2NkJMGwAIB0gIkOTcxMjMxMjQtOWU1ZS00ZWY2LTk5NjAtMzUzNzg3N2QzMTBl2AIF4AIB&sid=3439b60092e6917d40d363dcb25052e7&aid=304142"},
{"latlon": "49.88714842,2.31161090", "address": "\n25 rue du Blamont, 80000 Amiens, France\n", "url": "https://www.booking.com/hotel/fr/appart-39-odalys-blamont.fr.html?label=gen173nr-1FCAEoggI46AdIDVgEaBWIAQGYAQ24ARjIAQ_YAQHoAQH4AQKIAgGoAgS4Ap2NkJMGwAIB0gIkOTcxMjMxMjQtOWU1ZS00ZWY2LTk5NjAtMzUzNzg3N2QzMTBl2AIF4AIB&sid=3439b60092e6917d40d363dcb25052e7&aid=304142"},
{"latlon": "49.88769400,2.29452400", "address": "\n1 place longueville, 80000 Amiens, France\n", "url": "https://www.booking.com/hotel/fr/longuevie.fr.html?label=gen173nr-1FCAEoggI46AdIDVgEaBWIAQGYAQ24ARjIAQ_YAQHoAQH4AQKIAgGoAgS4Ap2NkJMGwAIB0gIkOTcxMjMxMjQtOWU1ZS00ZWY2LTk5NjAtMzUzNzg3N2QzMTBl2AIF4AIB&sid=3439b60092e6917d40d363dcb25052e7&aid=304142"},
{"latlon": "49.89183258,2.30599433", "address": "\n17 rue Alexandre Fatton, 80000 Amiens, France\n", "url": "https://www.booking.com/hotel/fr/central-anzac.fr.html?label=gen173nr-1FCAEoggI46AdIDVgEaBWIAQGYAQ24ARjIAQ_YAQHoAQH4AQKIAgGoAgS4Ap2NkJMGwAIB0gIkOTcxMjMxMjQtOWU1ZS00ZWY2LTk5NjAtMzUzNzg3N2QzMTBl2AIF4AIB&sid=3439b60092e6917d40d363dcb25052e7&aid=304142"},
{"latlon": "49.89538310,2.29777200", "address": "\n2 Rue du March\u00e9 des Lanselles, 80000 Amiens, France\n", "url": "https://www.booking.com/hotel/fr/le-duplex-amiens-pleine-vue-cathedrale.fr.html?label=gen173nr-1FCAEoggI46AdIDVgEaBWIAQGYAQ24ARjIAQ_YAQHoAQH4AQKIAgGoAgS4Ap2NkJMGwAIB0gIkOTcxMjMxMjQtOWU1ZS00ZWY2LTk5NjAtMzUzNzg3N2QzMTBl2AIF4AIB&sid=3439b60092e6917d40d363dcb25052e7&aid=304142"},
{"latlon": "49.89652520,2.28259020", "address": "\nApt 6 65 Boulevard des F\u00e9d\u00e9r\u00e9s, 80000 Amiens, France\n", "url": "https://www.booking.com/hotel/fr/le-toit-des-federes.fr.html?label=gen173nr-1FCAEoggI46AdIDVgEaBWIAQGYAQ24ARjIAQ_YAQHoAQH4AQKIAgGoAgS4Ap2NkJMGwAIB0gIkOTcxMjMxMjQtOWU1ZS00ZWY2LTk5NjAtMzUzNzg3N2QzMTBl2AIF4AIB&sid=3439b60092e6917d40d363dcb25052e7&aid=304142"},
{"latlon": "49.90235783,2.31428465", "address": "\n6 Rue Charles Labb\u00e9, 80000 Amiens, France\n", "url": "https://www.booking.com/hotel/fr/gite-amiens.fr.html?label=gen173nr-1FCAEoggI46AdIDVgEaBWIAQGYAQ24ARjIAQ_YAQHoAQH4AQKIAgGoAgS4Ap2NkJMGwAIB0gIkOTcxMjMxMjQtOWU1ZS00ZWY2LTk5NjAtMzUzNzg3N2QzMTBl2AIF4AIB&sid=3439b60092e6917d40d363dcb25052e7&aid=304142"},
{"latlon": "49.89615530,2.30636810", "address": "\n15 Boulevard du Cange, 80000 Amiens, France\n", "url": "https://www.booking.com/hotel/fr/maison-au-coeur-de-la-ville-amiens1.fr.html?label=gen173nr-1FCAEoggI46AdIDVgEaBWIAQGYAQ24ARjIAQ_YAQHoAQH4AQKIAgGoAgS4Ap2NkJMGwAIB0gIkOTcxMjMxMjQtOWU1ZS00ZWY2LTk5NjAtMzUzNzg3N2QzMTBl2AIF4AIB&sid=3439b60092e6917d40d363dcb25052e7&aid=304142"},
{"latlon": "49.89220425,2.29473797", "address": "\n8 Rue Lavalard, 80000 Amiens, France\n", "url": "https://www.booking.com/hotel/fr/downtown-rooftop-centre-ville-wifi-terrasse.fr.html?label=gen173nr-1FCAEoggI46AdIDVgEaBWIAQGYAQ24ARjIAQ_YAQHoAQH4AQKIAgGoAgS4Ap2NkJMGwAIB0gIkOTcxMjMxMjQtOWU1ZS00ZWY2LTk5NjAtMzUzNzg3N2QzMTBl2AIF4AIB&sid=3439b60092e6917d40d363dcb25052e7&aid=304142"},
{"latlon": "49.88854200,2.33134900", "address": "\n19 Rue Voyelle, 80000 Amiens, France\n", "url": "https://www.booking.com/hotel/fr/comme-une-parenthese-au-coeur-des-hortillonnages.fr.html?label=gen173nr-1FCAEoggI46AdIDVgEaBWIAQGYAQ24ARjIAQ_YAQHoAQH4AQKIAgGoAgS4Ap2NkJMGwAIB0gIkOTcxMjMxMjQtOWU1ZS00ZWY2LTk5NjAtMzUzNzg3N2QzMTBl2AIF4AIB&sid=3439b60092e6917d40d363dcb25052e7&aid=304142"},
{"latlon": "49.88970200,2.29843920", "address": "\n2 Rue Duthoit, 80000 Amiens, France\n", "url": "https://www.booking.com/hotel/fr/une-maison-en-ville-amiens.fr.html?label=gen173nr-1FCAEoggI46AdIDVgEaBWIAQGYAQ24ARjIAQ_YAQHoAQH4AQKIAgGoAgS4Ap2NkJMGwAIB0gIkOTcxMjMxMjQtOWU1ZS00ZWY2LTk5NjAtMzUzNzg3N2QzMTBl2AIF4AIB&sid=3439b60092e6917d40d363dcb25052e7&aid=304142"},
{"latlon": "49.89193885,2.30575562", "address": "\n15 rue Fatton, 80000 Amiens, France\n", "url": "https://www.booking.com/hotel/fr/au-spatial.fr.html?label=gen173nr-1FCAEoggI46AdIDVgEaBWIAQGYAQ24ARjIAQ_YAQHoAQH4AQKIAgGoAgS4Ap2NkJMGwAIB0gIkOTcxMjMxMjQtOWU1ZS00ZWY2LTk5NjAtMzUzNzg3N2QzMTBl2AIF4AIB&sid=3439b60092e6917d40d363dcb25052e7&aid=304142"},
{"latlon": "49.89225955,2.29466287", "address": "\n8 Rue Lavalard, 80000 Amiens, France\n", "url": "https://www.booking.com/hotel/fr/downtown-cocoon-centre-ville-wifi-netflix.fr.html?label=gen173nr-1FCAEoggI46AdIDVgEaBWIAQGYAQ24ARjIAQ_YAQHoAQH4AQKIAgGoAgS4Ap2NkJMGwAIB0gIkOTcxMjMxMjQtOWU1ZS00ZWY2LTk5NjAtMzUzNzg3N2QzMTBl2AIF4AIB&sid=3439b60092e6917d40d363dcb25052e7&aid=304142"},
{"latlon": "49.88712500,2.29514300", "address": "\n9bis Rue Cozette, 80000 Amiens, France\n", "url": "https://www.booking.com/hotel/fr/ginkgo-maison-d-39-hotes.fr.html?label=gen173nr-1FCAEoggI46AdIDVgEaBWIAQGYAQ24ARjIAQ_YAQHoAQH4AQKIAgGoAgS4Ap2NkJMGwAIB0gIkOTcxMjMxMjQtOWU1ZS00ZWY2LTk5NjAtMzUzNzg3N2QzMTBl2AIF4AIB&sid=3439b60092e6917d40d363dcb25052e7&aid=304142"},
{"latlon": "49.89142200,2.30499600", "address": "\n10 Rue Lamartine, 80000 Amiens, France\n", "url": "https://www.booking.com/hotel/fr/ibis-styles-amiens-centre.fr.html?label=gen173nr-1FCAEoggI46AdIDVgEaBWIAQGYAQ24ARjIAQ_YAQHoAQH4AQKIAgGoAgS4Ap2NkJMGwAIB0gIkOTcxMjMxMjQtOWU1ZS00ZWY2LTk5NjAtMzUzNzg3N2QzMTBl2AIF4AIB&sid=3439b60092e6917d40d363dcb25052e7&aid=304142"},
{"latlon": "49.88536500,2.26966900", "address": "\n593 rue de rouen, 80000 Amiens, France\n", "url": "https://www.booking.com/hotel/fr/le-vivier-amiens.fr.html?label=gen173nr-1FCAEoggI46AdIDVgEaBWIAQGYAQ24ARjIAQ_YAQHoAQH4AQKIAgGoAgS4Ap2NkJMGwAIB0gIkOTcxMjMxMjQtOWU1ZS00ZWY2LTk5NjAtMzUzNzg3N2QzMTBl2AIF4AIB&sid=3439b60092e6917d40d363dcb25052e7&aid=304142"},
{"latlon": "49.89571084,2.29956239", "address": "\n21/23 Rue Flatters, 80000 Amiens, France\n", "url": "https://www.booking.com/hotel/fr/mercure-amiens-cathdrale.fr.html?label=gen173nr-1FCAEoggI46AdIDVgEaBWIAQGYAQ24ARjIAQ_YAQHoAQH4AQKIAgGoAgS4Ap2NkJMGwAIB0gIkOTcxMjMxMjQtOWU1ZS00ZWY2LTk5NjAtMzUzNzg3N2QzMTBl2AIF4AIB&sid=3439b60092e6917d40d363dcb25052e7&aid=304142"},
{"latlon": "49.89159100,2.31357300", "address": "\n15 Rue Dejean, 80000 Amiens, France\n", "url": "https://www.booking.com/hotel/fr/ibis-budget-amiens-centre-gare.fr.html?label=gen173nr-1FCAEoggI46AdIDVgEaBWIAQGYAQ24ARjIAQ_YAQHoAQH4AQKIAgGoAgS4Ap2NkJMGwAIB0gIkOTcxMjMxMjQtOWU1ZS00ZWY2LTk5NjAtMzUzNzg3N2QzMTBl2AIF4AIB&sid=3439b60092e6917d40d363dcb25052e7&aid=304142"},
{"latlon": "49.89431630,2.30976120", "address": "\n80, boulevard d'Alsace-Lorraine, 80000 Amiens, France\n", "url": "https://www.booking.com/hotel/fr/appart-city-amiens.fr.html?label=gen173nr-1FCAEoggI46AdIDVgEaBWIAQGYAQ24ARjIAQ_YAQHoAQH4AQKIAgGoAgS4Ap2NkJMGwAIB0gIkOTcxMjMxMjQtOWU1ZS00ZWY2LTk5NjAtMzUzNzg3N2QzMTBl2AIF4AIB&sid=3439b60092e6917d40d363dcb25052e7&aid=304142"},
{"latlon": "49.89013675,2.29853201", "address": "\n2 Rue Vivien, 80000 Amiens, France\n", "url": "https://www.booking.com/hotel/fr/charmant-t2-hyper-centre-netflix-gare.fr.html?label=gen173nr-1FCAEoggI46AdIDVgEaBWIAQGYAQ24ARjIAQ_YAQHoAQH4AQKIAgGoAgS4Ap2NkJMGwAIB0gIkOTcxMjMxMjQtOWU1ZS00ZWY2LTk5NjAtMzUzNzg3N2QzMTBl2AIF4AIB&sid=3439b60092e6917d40d363dcb25052e7&aid=304142"},
{"latlon": "49.88977885,2.30249941", "address": "\n24 Rue Des Otages, 80000 Amiens, France\n", "url": "https://www.booking.com/hotel/fr/le-saint-louis-amienq.fr.html?label=gen173nr-1FCAEoggI46AdIDVgEaBWIAQGYAQ24ARjIAQ_YAQHoAQH4AQKIAgGoAgS4Ap2NkJMGwAIB0gIkOTcxMjMxMjQtOWU1ZS00ZWY2LTk5NjAtMzUzNzg3N2QzMTBl2AIF4AIB&sid=3439b60092e6917d40d363dcb25052e7&aid=304142"},
{"latlon": "49.89448371,2.27680253", "address": "\n1 avenue de l'hippodrome AMIENS, 80000 Amiens, France\n", "url": "https://www.booking.com/hotel/fr/la-chambre-d-39-amiens.fr.html?label=gen173nr-1FCAEoggI46AdIDVgEaBWIAQGYAQ24ARjIAQ_YAQHoAQH4AQKIAgGoAgS4Ap2NkJMGwAIB0gIkOTcxMjMxMjQtOWU1ZS00ZWY2LTk5NjAtMzUzNzg3N2QzMTBl2AIF4AIB&sid=3439b60092e6917d40d363dcb25052e7&aid=304142"},
{"latlon": "48.86063781,2.34242745", "address": "\n48 Rue De L'arbre Sec, 1er arr., 75001 Paris, France\n", "url": "https://www.booking.com/hotel/fr/empire-paris.fr.html?label=gen173nr-1FCAEoggI46AdIDVgEaBWIAQGYAQ24ARjIAQ_YAQHoAQH4AQKIAgGoAgS4Ap2NkJMGwAIB0gIkOTcxMjMxMjQtOWU1ZS00ZWY2LTk5NjAtMzUzNzg3N2QzMTBl2AIF4AIB&sid=3439b60092e6917d40d363dcb25052e7&aid=304142"},
{"latlon": "48.87693501,2.32698441", "address": "\n26 Rue d'Amsterdam, 9e arr., 75009 Paris, France\n", "url": "https://www.booking.com/hotel/fr/austin-s-saint-lazare.fr.html?label=gen173nr-1FCAEoggI46AdIDVgEaBWIAQGYAQ24ARjIAQ_YAQHoAQH4AQKIAgGoAgS4Ap2NkJMGwAIB0gIkOTcxMjMxMjQtOWU1ZS00ZWY2LTk5NjAtMzUzNzg3N2QzMTBl2AIF4AIB&sid=3439b60092e6917d40d363dcb25052e7&aid=304142"},
{"latlon": "48.87652507,2.29293287", "address": "\n24 Avenue Carnot, 17e arr., 75017 Paris, France\n", "url": "https://www.booking.com/hotel/fr/la-regence-etoile.fr.html?label=gen173nr-1FCAEoggI46AdIDVgEaBWIAQGYAQ24ARjIAQ_YAQHoAQH4AQKIAgGoAgS4Ap2NkJMGwAIB0gIkOTcxMjMxMjQtOWU1ZS00ZWY2LTk5NjAtMzUzNzg3N2QzMTBl2AIF4AIB&sid=3439b60092e6917d40d363dcb25052e7&aid=304142"},
{"latlon": "48.88639354,2.29494631", "address": "\n166 Boulevard Berthier, 17e arr., 75017 Paris, France\n", "url": "https://www.booking.com/hotel/fr/hoteldebanvilleparis.fr.html?label=gen173nr-1FCAEoggI46AdIDVgEaBWIAQGYAQ24ARjIAQ_YAQHoAQH4AQKIAgGoAgS4Ap2NkJMGwAIB0gIkOTcxMjMxMjQtOWU1ZS00ZWY2LTk5NjAtMzUzNzg3N2QzMTBl2AIF4AIB&sid=3439b60092e6917d40d363dcb25052e7&aid=304142"},
{"latlon": "48.87523779,2.33280033", "address": "\n75 Rue De La Victoire, 9e arr., 75009 Paris, France\n", "url": "https://www.booking.com/hotel/fr/heliosopera.fr.html?label=gen173nr-1FCAEoggI46AdIDVgEaBWIAQGYAQ24ARjIAQ_YAQHoAQH4AQKIAgGoAgS4Ap2NkJMGwAIB0gIkOTcxMjMxMjQtOWU1ZS00ZWY2LTk5NjAtMzUzNzg3N2QzMTBl2AIF4AIB&sid=3439b60092e6917d40d363dcb25052e7&aid=304142"},
{"latlon": "48.87434515,2.28977568", "address": "\n1/3 Rue d'Argentine, 16e arr., 75116 Paris, France\n", "url": "https://www.booking.com/hotel/fr/d-argentine.fr.html?label=gen173nr-1FCAEoggI46AdIDVgEaBWIAQGYAQ24ARjIAQ_YAQHoAQH4AQKIAgGoAgS4Ap2NkJMGwAIB0gIkOTcxMjMxMjQtOWU1ZS00ZWY2LTk5NjAtMzUzNzg3N2QzMTBl2AIF4AIB&sid=3439b60092e6917d40d363dcb25052e7&aid=304142"},
{"latlon": "48.88129894,2.29480304", "address": "\n36 rue Pierre Demours, 17e arr., 75017 Paris, France\n", "url": "https://www.booking.com/hotel/fr/westside-arc-de-triomphe.fr.html?label=gen173nr-1FCAEoggI46AdIDVgEaBWIAQGYAQ24ARjIAQ_YAQHoAQH4AQKIAgGoAgS4Ap2NkJMGwAIB0gIkOTcxMjMxMjQtOWU1ZS00ZWY2LTk5NjAtMzUzNzg3N2QzMTBl2AIF4AIB&sid=3439b60092e6917d40d363dcb25052e7&aid=304142"},
{"latlon": "48.85158544,2.39082724", "address": "\n223 Boulevard Voltaire, 11e arr., 75011 Paris, France\n", "url": "https://www.booking.com/hotel/fr/hotelfrancais.fr.html?label=gen173nr-1FCAEoggI46AdIDVgEaBWIAQGYAQ24ARjIAQ_YAQHoAQH4AQKIAgGoAgS4Ap2NkJMGwAIB0gIkOTcxMjMxMjQtOWU1ZS00ZWY2LTk5NjAtMzUzNzg3N2QzMTBl2AIF4AIB&sid=3439b60092e6917d40d363dcb25052e7&aid=304142"},
{"latlon": "48.83971177,2.33017266", "address": "\n232 Boulevard Raspail, 14e arr., 75014 Paris, France\n", "url": "https://www.booking.com/hotel/fr/aiglon.fr.html?label=gen173nr-1FCAEoggI46AdIDVgEaBWIAQGYAQ24ARjIAQ_YAQHoAQH4AQKIAgGoAgS4Ap2NkJMGwAIB0gIkOTcxMjMxMjQtOWU1ZS00ZWY2LTk5NjAtMzUzNzg3N2QzMTBl2AIF4AIB&sid=3439b60092e6917d40d363dcb25052e7&aid=304142"},
{"latlon": "48.83815760,2.34961550", "address": "\n15 RUE PASCAL, 5e arr., 75005 Paris, France\n", "url": "https://www.booking.com/hotel/fr/de-l-39-esperance.fr.html?label=gen173nr-1FCAEoggI46AdIDVgEaBWIAQGYAQ24ARjIAQ_YAQHoAQH4AQKIAgGoAgS4Ap2NkJMGwAIB0gIkOTcxMjMxMjQtOWU1ZS00ZWY2LTk5NjAtMzUzNzg3N2QzMTBl2AIF4AIB&sid=3439b60092e6917d40d363dcb25052e7&aid=304142"},
{"latlon": "48.86601094,2.35709757", "address": "\n6 Rue Montgolfier, 3e arr., 75003 Paris, France\n", "url": "https://www.booking.com/hotel/fr/austin-s-arts-et-metiers.fr.html?label=gen173nr-1FCAEoggI46AdIDVgEaBWIAQGYAQ24ARjIAQ_YAQHoAQH4AQKIAgGoAgS4Ap2NkJMGwAIB0gIkOTcxMjMxMjQtOWU1ZS00ZWY2LTk5NjAtMzUzNzg3N2QzMTBl2AIF4AIB&sid=3439b60092e6917d40d363dcb25052e7&aid=304142"},
{"latlon": "48.84659045,2.28857003", "address": "\n96 Avenue Emile Zola, 15e arr., 75015 Paris, France\n", "url": "https://www.booking.com/hotel/fr/idealhotel.fr.html?label=gen173nr-1FCAEoggI46AdIDVgEaBWIAQGYAQ24ARjIAQ_YAQHoAQH4AQKIAgGoAgS4Ap2NkJMGwAIB0gIkOTcxMjMxMjQtOWU1ZS00ZWY2LTk5NjAtMzUzNzg3N2QzMTBl2AIF4AIB&sid=3439b60092e6917d40d363dcb25052e7&aid=304142"},
{"latlon": "48.88141526,2.32455321", "address": "\n17, rue de Turin, 8e arr., 75008 Paris, France\n", "url": "https://www.booking.com/hotel/fr/america.fr.html?label=gen173nr-1FCAEoggI46AdIDVgEaBWIAQGYAQ24ARjIAQ_YAQHoAQH4AQKIAgGoAgS4Ap2NkJMGwAIB0gIkOTcxMjMxMjQtOWU1ZS00ZWY2LTk5NjAtMzUzNzg3N2QzMTBl2AIF4AIB&sid=3439b60092e6917d40d363dcb25052e7&aid=304142"},
{"latlon": "48.87606691,2.34567493", "address": "\n46, Rue De Tr\u00e9vise, 9e arr., 75009 Paris, France\n", "url": "https://www.booking.com/hotel/fr/holiday-villa-lafayette-paris.fr.html?label=gen173nr-1FCAEoggI46AdIDVgEaBWIAQGYAQ24ARjIAQ_YAQHoAQH4AQKIAgGoAgS4Ap2NkJMGwAIB0gIkOTcxMjMxMjQtOWU1ZS00ZWY2LTk5NjAtMzUzNzg3N2QzMTBl2AIF4AIB&sid=3439b60092e6917d40d363dcb25052e7&aid=304142"},
{"latlon": "48.88166743,2.33732789", "address": "\n9 rue frochot, 9e arr., 75009 Paris, France\n", "url": "https://www.booking.com/hotel/fr/le-pigalle-paris2.fr.html?label=gen173nr-1FCAEoggI46AdIDVgEaBWIAQGYAQ24ARjIAQ_YAQHoAQH4AQKIAgGoAgS4Ap2NkJMGwAIB0gIkOTcxMjMxMjQtOWU1ZS00ZWY2LTk5NjAtMzUzNzg3N2QzMTBl2AIF4AIB&sid=3439b60092e6917d40d363dcb25052e7&aid=304142"},
{"latlon": "48.85925680,2.36840850", "address": "\n54 rue Amelot, 11e arr., 75011 Paris, France\n", "url": "https://www.booking.com/hotel/fr/grand-amelot-paris4.fr.html?label=gen173nr-1FCAEoggI46AdIDVgEaBWIAQGYAQ24ARjIAQ_YAQHoAQH4AQKIAgGoAgS4Ap2NkJMGwAIB0gIkOTcxMjMxMjQtOWU1ZS00ZWY2LTk5NjAtMzUzNzg3N2QzMTBl2AIF4AIB&sid=3439b60092e6917d40d363dcb25052e7&aid=304142"},
{"latlon": "48.86444380,2.36488450", "address": "\n132 Rue de Turenne, 3e arr., 75003 Paris, France\n", "url": "https://www.booking.com/hotel/fr/sweet-inn-le-marais-turenne.fr.html?label=gen173nr-1FCAEoggI46AdIDVgEaBWIAQGYAQ24ARjIAQ_YAQHoAQH4AQKIAgGoAgS4Ap2NkJMGwAIB0gIkOTcxMjMxMjQtOWU1ZS00ZWY2LTk5NjAtMzUzNzg3N2QzMTBl2AIF4AIB&sid=3439b60092e6917d40d363dcb25052e7&aid=304142"},
{"latlon": "48.88133015,2.32741512", "address": "\n12 rue de Parme, 9e arr., 75009 Paris, France\n", "url": "https://www.booking.com/hotel/fr/grey.fr.html?label=gen173nr-1FCAEoggI46AdIDVgEaBWIAQGYAQ24ARjIAQ_YAQHoAQH4AQKIAgGoAgS4Ap2NkJMGwAIB0gIkOTcxMjMxMjQtOWU1ZS00ZWY2LTk5NjAtMzUzNzg3N2QzMTBl2AIF4AIB&sid=3439b60092e6917d40d363dcb25052e7&aid=304142"},
{"latlon": "48.85124400,2.32723800", "address": "\n45 Boulevard Raspail, 6e arr., 75006 Paris, France\n", "url": "https://www.booking.com/hotel/fr/lutetia-paris12.fr.html?label=gen173nr-1FCAEoggI46AdIDVgEaBWIAQGYAQ24ARjIAQ_YAQHoAQH4AQKIAgGoAgS4Ap2NkJMGwAIB0gIkOTcxMjMxMjQtOWU1ZS00ZWY2LTk5NjAtMzUzNzg3N2QzMTBl2AIF4AIB&sid=3439b60092e6917d40d363dcb25052e7&aid=304142"},
{"latlon": "48.85057501,2.26743221", "address": "\n36, rue George Sand, 16e arr., 75016 Paris, France\n", "url": "https://www.booking.com/hotel/fr/residencejasmin.fr.html?label=gen173nr-1FCAEoggI46AdIDVgEaBWIAQGYAQ24ARjIAQ_YAQHoAQH4AQKIAgGoAgS4Ap2NkJMGwAIB0gIkOTcxMjMxMjQtOWU1ZS00ZWY2LTk5NjAtMzUzNzg3N2QzMTBl2AIF4AIB&sid=3439b60092e6917d40d363dcb25052e7&aid=304142"},
{"latlon": "48.84048640,2.30731780", "address": "\n9 Rue Mathurin R\u00e9gnier, 15e arr., 75015 Paris, France\n", "url": "https://www.booking.com/hotel/fr/new-appt-style-le-corbusier-avec-balcon-8-pers.fr.html?label=gen173nr-1FCAEoggI46AdIDVgEaBWIAQGYAQ24ARjIAQ_YAQHoAQH4AQKIAgGoAgS4Ap2NkJMGwAIB0gIkOTcxMjMxMjQtOWU1ZS00ZWY2LTk5NjAtMzUzNzg3N2QzMTBl2AIF4AIB&sid=3439b60092e6917d40d363dcb25052e7&aid=304142"},
{"latlon": "48.85492633,2.34115541", "address": "\n53 Ter, Quai des Grands Augustins, 6e arr., 75006 Paris, France\n", "url": "https://www.booking.com/hotel/fr/citadines-aparthotel-saint-germain-des-pres.fr.html?label=gen173nr-1FCAEoggI46AdIDVgEaBWIAQGYAQ24ARjIAQ_YAQHoAQH4AQKIAgGoAgS4Ap2NkJMGwAIB0gIkOTcxMjMxMjQtOWU1ZS00ZWY2LTk5NjAtMzUzNzg3N2QzMTBl2AIF4AIB&sid=3439b60092e6917d40d363dcb25052e7&aid=304142"},
{"latlon": "48.84410500,2.41306300", "address": "\n37 Boulevard Carnot, 12e arr., 75012 Paris, France\n", "url": "https://www.booking.com/hotel/fr/meininger-paris-porte-de-vincennes.fr.html?label=gen173nr-1FCAEoggI46AdIDVgEaBWIAQGYAQ24ARjIAQ_YAQHoAQH4AQKIAgGoAgS4Ap2NkJMGwAIB0gIkOTcxMjMxMjQtOWU1ZS00ZWY2LTk5NjAtMzUzNzg3N2QzMTBl2AIF4AIB&sid=3439b60092e6917d40d363dcb25052e7&aid=304142"},
{"latlon": "48.83765251,2.31828555", "address": "\n40 Rue du Commandant Ren\u00e9 Mouchotte, 14e arr., 75014 Paris, France\n", "url": "https://www.booking.com/hotel/fr/hotelparismontparn.fr.html?label=gen173nr-1FCAEoggI46AdIDVgEaBWIAQGYAQ24ARjIAQ_YAQHoAQH4AQKIAgGoAgS4Ap2NkJMGwAIB0gIkOTcxMjMxMjQtOWU1ZS00ZWY2LTk5NjAtMzUzNzg3N2QzMTBl2AIF4AIB&sid=3439b60092e6917d40d363dcb25052e7&aid=304142"},
{"latlon": "50.62914624,3.06419907", "address": "\n7ter Rue Gauthier de Ch\u00e2tillon, Centre de Lille, 59000 Lille, France\n", "url": "https://www.booking.com/hotel/fr/la-villa-cachee-prox-gare-lille-flandre-metro.fr.html?label=gen173nr-1FCAEoggI46AdIDVgEaBWIAQGYAQ24ARjIAQ_YAQHoAQH4AQKIAgGoAgS4Ap2NkJMGwAIB0gIkOTcxMjMxMjQtOWU1ZS00ZWY2LTk5NjAtMzUzNzg3N2QzMTBl2AIF4AIB&sid=3439b60092e6917d40d363dcb25052e7&aid=304142"},
{"latlon": "48.86430633,2.34039703", "address": "\n36 Rue Croix Des Petits Champs, 1er arr., 75001 Paris, France\n", "url": "https://www.booking.com/hotel/fr/appartement-petits-champs.fr.html?label=gen173nr-1FCAEoggI46AdIDVgEaBWIAQGYAQ24ARjIAQ_YAQHoAQH4AQKIAgGoAgS4Ap2NkJMGwAIB0gIkOTcxMjMxMjQtOWU1ZS00ZWY2LTk5NjAtMzUzNzg3N2QzMTBl2AIF4AIB&sid=3439b60092e6917d40d363dcb25052e7&aid=304142"},
{"latlon": "50.63788756,3.07268500", "address": "\navenue Le Corbusier, Centre de Lille, 59777 Lille, France\n", "url": "https://www.booking.com/hotel/fr/lille-europe.fr.html?label=gen173nr-1FCAEoggI46AdIDVgEaBWIAQGYAQ24ARjIAQ_YAQHoAQH4AQKIAgGoAgS4Ap2NkJMGwAIB0gIkOTcxMjMxMjQtOWU1ZS00ZWY2LTk5NjAtMzUzNzg3N2QzMTBl2AIF4AIB&sid=3439b60092e6917d40d363dcb25052e7&aid=304142"},
{"latlon": "50.62783100,3.06359200", "address": "\n3, Rue Jean Bart, Centre de Lille, 59000 Lille, France\n", "url": "https://www.booking.com/hotel/fr/moxy-lille-city-center-france.fr.html?label=gen173nr-1FCAEoggI46AdIDVgEaBWIAQGYAQ24ARjIAQ_YAQHoAQH4AQKIAgGoAgS4Ap2NkJMGwAIB0gIkOTcxMjMxMjQtOWU1ZS00ZWY2LTk5NjAtMzUzNzg3N2QzMTBl2AIF4AIB&sid=3439b60092e6917d40d363dcb25052e7&aid=304142"},
{"latlon": "50.63528798,3.06970725", "address": "\n14, rue du Molinel, Centre de Lille, 59000 Lille, France\n", "url": "https://www.booking.com/hotel/fr/calm-lille.fr.html?label=gen173nr-1FCAEoggI46AdIDVgEaBWIAQGYAQ24ARjIAQ_YAQHoAQH4AQKIAgGoAgS4Ap2NkJMGwAIB0gIkOTcxMjMxMjQtOWU1ZS00ZWY2LTk5NjAtMzUzNzg3N2QzMTBl2AIF4AIB&sid=3439b60092e6917d40d363dcb25052e7&aid=304142"},
{"latlon": "50.63238245,3.06794286", "address": "\n172 Rue Pierre Mauroy, Centre de Lille, 59000 Lille, France\n", "url": "https://www.booking.com/hotel/fr/ibis-styles-lille-centre-gare-beffroi.fr.html?label=gen173nr-1FCAEoggI46AdIDVgEaBWIAQGYAQ24ARjIAQ_YAQHoAQH4AQKIAgGoAgS4Ap2NkJMGwAIB0gIkOTcxMjMxMjQtOWU1ZS00ZWY2LTk5NjAtMzUzNzg3N2QzMTBl2AIF4AIB&sid=3439b60092e6917d40d363dcb25052e7&aid=304142"},
{"latlon": "50.63647023,3.07490923", "address": "\n271 Avenue Willy Brandt, Centre de Lille, 59777 Lille, France\n", "url": "https://www.booking.com/hotel/fr/residence-lille-europe.fr.html?label=gen173nr-1FCAEoggI46AdIDVgEaBWIAQGYAQ24ARjIAQ_YAQHoAQH4AQKIAgGoAgS4Ap2NkJMGwAIB0gIkOTcxMjMxMjQtOWU1ZS00ZWY2LTk5NjAtMzUzNzg3N2QzMTBl2AIF4AIB&sid=3439b60092e6917d40d363dcb25052e7&aid=304142"},
{"latlon": "50.63075938,3.05808842", "address": "\n75 Bis Rue Leon Gambetta, Centre de Lille, 59000 Lille, France\n", "url": "https://www.booking.com/hotel/fr/expressbyholidayinnlille.fr.html?label=gen173nr-1FCAEoggI46AdIDVgEaBWIAQGYAQ24ARjIAQ_YAQHoAQH4AQKIAgGoAgS4Ap2NkJMGwAIB0gIkOTcxMjMxMjQtOWU1ZS00ZWY2LTk5NjAtMzUzNzg3N2QzMTBl2AIF4AIB&sid=3439b60092e6917d40d363dcb25052e7&aid=304142"},
{"latlon": "50.63654707,3.06234241", "address": "\n5, rue Jean Roisin, Centre de Lille, 59000 Lille, France\n", "url": "https://www.booking.com/hotel/fr/grandhotelbellevue.fr.html?label=gen173nr-1FCAEoggI46AdIDVgEaBWIAQGYAQ24ARjIAQ_YAQHoAQH4AQKIAgGoAgS4Ap2NkJMGwAIB0gIkOTcxMjMxMjQtOWU1ZS00ZWY2LTk5NjAtMzUzNzg3N2QzMTBl2AIF4AIB&sid=3439b60092e6917d40d363dcb25052e7&aid=304142"},
{"latlon": "50.63407400,3.06422900", "address": "\n13 Rue d'Amiens, Centre de Lille, 59800 Lille, France\n", "url": "https://www.booking.com/hotel/fr/okko-hotels-lille-centre.fr.html?label=gen173nr-1FCAEoggI46AdIDVgEaBWIAQGYAQ24ARjIAQ_YAQHoAQH4AQKIAgGoAgS4Ap2NkJMGwAIB0gIkOTcxMjMxMjQtOWU1ZS00ZWY2LTk5NjAtMzUzNzg3N2QzMTBl2AIF4AIB&sid=3439b60092e6917d40d363dcb25052e7&aid=304142"},
{"latlon": "50.64602156,3.07587147", "address": "\n110, Avenue de la R\u00e9publique, 59110 Lille, France\n", "url": "https://www.booking.com/hotel/fr/hotelsrtdecoromarinlille.fr.html?label=gen173nr-1FCAEoggI46AdIDVgEaBWIAQGYAQ24ARjIAQ_YAQHoAQH4AQKIAgGoAgS4Ap2NkJMGwAIB0gIkOTcxMjMxMjQtOWU1ZS00ZWY2LTk5NjAtMzUzNzg3N2QzMTBl2AIF4AIB&sid=3439b60092e6917d40d363dcb25052e7&aid=304142"},
{"latlon": "50.63359887,3.06328118", "address": "\n57 rue de Bethune, Centre de Lille, 59000 Lille, France\n", "url": "https://www.booking.com/hotel/fr/misterbeddelille.fr.html?label=gen173nr-1FCAEoggI46AdIDVgEaBWIAQGYAQ24ARjIAQ_YAQHoAQH4AQKIAgGoAgS4Ap2NkJMGwAIB0gIkOTcxMjMxMjQtOWU1ZS00ZWY2LTk5NjAtMzUzNzg3N2QzMTBl2AIF4AIB&sid=3439b60092e6917d40d363dcb25052e7&aid=304142"},
{"latlon": "50.63220722,3.04668635", "address": "\n69/71 Boulevard Vauban, Vauban, 59000 Lille, France\n", "url": "https://www.booking.com/hotel/fr/residhotel-lille-vauban.fr.html?label=gen173nr-1FCAEoggI46AdIDVgEaBWIAQGYAQ24ARjIAQ_YAQHoAQH4AQKIAgGoAgS4Ap2NkJMGwAIB0gIkOTcxMjMxMjQtOWU1ZS00ZWY2LTk5NjAtMzUzNzg3N2QzMTBl2AIF4AIB&sid=3439b60092e6917d40d363dcb25052e7&aid=304142"},
{"latlon": "50.62003296,3.08456697", "address": "\n6 rue professeur Langevin, Fives, 59000 Lille, France\n", "url": "https://www.booking.com/hotel/fr/eklo-hotels-lille.fr.html?label=gen173nr-1FCAEoggI46AdIDVgEaBWIAQGYAQ24ARjIAQ_YAQHoAQH4AQKIAgGoAgS4Ap2NkJMGwAIB0gIkOTcxMjMxMjQtOWU1ZS00ZWY2LTk5NjAtMzUzNzg3N2QzMTBl2AIF4AIB&sid=3439b60092e6917d40d363dcb25052e7&aid=304142"},
{"latlon": "50.63883337,3.07668149", "address": "\nBoulevard De Turin, Centre de Lille, 59000 Lille, France\n", "url": "https://www.booking.com/hotel/fr/suitehotel-lille-europe.fr.html?label=gen173nr-1FCAEoggI46AdIDVgEaBWIAQGYAQ24ARjIAQ_YAQHoAQH4AQKIAgGoAgS4Ap2NkJMGwAIB0gIkOTcxMjMxMjQtOWU1ZS00ZWY2LTk5NjAtMzUzNzg3N2QzMTBl2AIF4AIB&sid=3439b60092e6917d40d363dcb25052e7&aid=304142"},
{"latlon": "50.63557145,3.06783289", "address": "\n8 Parvis St Maurice, Centre de Lille, 59800 Lille, France\n", "url": "https://www.booking.com/hotel/fr/hotelsaintmaurice.fr.html?label=gen173nr-1FCAEoggI46AdIDVgEaBWIAQGYAQ24ARjIAQ_YAQHoAQH4AQKIAgGoAgS4Ap2NkJMGwAIB0gIkOTcxMjMxMjQtOWU1ZS00ZWY2LTk5NjAtMzUzNzg3N2QzMTBl2AIF4AIB&sid=3439b60092e6917d40d363dcb25052e7&aid=304142"},
{"latlon": "50.62603955,3.05190325", "address": "\n66, rue Littr\u00e9, Wazemmes, 59000 Lille, France\n", "url": "https://www.booking.com/hotel/fr/besthotel_lille.fr.html?label=gen173nr-1FCAEoggI46AdIDVgEaBWIAQGYAQ24ARjIAQ_YAQHoAQH4AQKIAgGoAgS4Ap2NkJMGwAIB0gIkOTcxMjMxMjQtOWU1ZS00ZWY2LTk5NjAtMzUzNzg3N2QzMTBl2AIF4AIB&sid=3439b60092e6917d40d363dcb25052e7&aid=304142"},
{"latlon": "50.63685668,3.06794286", "address": "\n51 Rue Faidherbe, Centre de Lille, 59000 Lille, France\n", "url": "https://www.booking.com/hotel/fr/le-grand-hotel.fr.html?label=gen173nr-1FCAEoggI46AdIDVgEaBWIAQGYAQ24ARjIAQ_YAQHoAQH4AQKIAgGoAgS4Ap2NkJMGwAIB0gIkOTcxMjMxMjQtOWU1ZS00ZWY2LTk5NjAtMzUzNzg3N2QzMTBl2AIF4AIB&sid=3439b60092e6917d40d363dcb25052e7&aid=304142"},
{"latlon": "50.64106837,3.05505589", "address": "\n73 rue Sainte Catherine, Vieux-Lille, 59000 Lille, France\n", "url": "https://www.booking.com/hotel/fr/maison-parking-exterieur-vx-lille.fr.html?label=gen173nr-1FCAEoggI46AdIDVgEaBWIAQGYAQ24ARjIAQ_YAQHoAQH4AQKIAgGoAgS4Ap2NkJMGwAIB0gIkOTcxMjMxMjQtOWU1ZS00ZWY2LTk5NjAtMzUzNzg3N2QzMTBl2AIF4AIB&sid=3439b60092e6917d40d363dcb25052e7&aid=304142"},
{"latlon": "50.62905798,3.08113396", "address": "\n19 rue Berthe Morisot, Centre de Lille, 59000 Lille, France\n", "url": "https://www.booking.com/hotel/fr/appart-city-lille-grand-palais.fr.html?label=gen173nr-1FCAEoggI46AdIDVgEaBWIAQGYAQ24ARjIAQ_YAQHoAQH4AQKIAgGoAgS4Ap2NkJMGwAIB0gIkOTcxMjMxMjQtOWU1ZS00ZWY2LTk5NjAtMzUzNzg3N2QzMTBl2AIF4AIB&sid=3439b60092e6917d40d363dcb25052e7&aid=304142"},
{"latlon": "50.63620003,3.06570321", "address": "\n46 Bis Rue Pierre Mauroy , Centre de Lille, 59000 Lille, France\n", "url": "https://www.booking.com/hotel/fr/de-la-paix-lille.fr.html?label=gen173nr-1FCAEoggI46AdIDVgEaBWIAQGYAQ24ARjIAQ_YAQHoAQH4AQKIAgGoAgS4Ap2NkJMGwAIB0gIkOTcxMjMxMjQtOWU1ZS00ZWY2LTk5NjAtMzUzNzg3N2QzMTBl2AIF4AIB&sid=3439b60092e6917d40d363dcb25052e7&aid=304142"},
{"latlon": "50.64569830,3.07210967", "address": "\n23 All\u00e9e Vauban - La Madeleine, 59110 Lille, France\n", "url": "https://www.booking.com/hotel/fr/campanile-lille-euralille-xml.fr.html?label=gen173nr-1FCAEoggI46AdIDVgEaBWIAQGYAQ24ARjIAQ_YAQHoAQH4AQKIAgGoAgS4Ap2NkJMGwAIB0gIkOTcxMjMxMjQtOWU1ZS00ZWY2LTk5NjAtMzUzNzg3N2QzMTBl2AIF4AIB&sid=3439b60092e6917d40d363dcb25052e7&aid=304142"},
{"latlon": "50.63603842,3.06693703", "address": "\n3-5 Parvis St Maurice, Centre de Lille, 59000 Lille, France\n", "url": "https://www.booking.com/hotel/fr/brueghel.fr.html?label=gen173nr-1FCAEoggI46AdIDVgEaBWIAQGYAQ24ARjIAQ_YAQHoAQH4AQKIAgGoAgS4Ap2NkJMGwAIB0gIkOTcxMjMxMjQtOWU1ZS00ZWY2LTk5NjAtMzUzNzg3N2QzMTBl2AIF4AIB&sid=3439b60092e6917d40d363dcb25052e7&aid=304142"},
{"latlon": "50.63734618,3.06945696", "address": "\n2 rue des Buisses, Centre de Lille, 59000 Lille, France\n", "url": "https://www.booking.com/hotel/fr/calm-apparthotel.fr.html?label=gen173nr-1FCAEoggI46AdIDVgEaBWIAQGYAQ24ARjIAQ_YAQHoAQH4AQKIAgGoAgS4Ap2NkJMGwAIB0gIkOTcxMjMxMjQtOWU1ZS00ZWY2LTk5NjAtMzUzNzg3N2QzMTBl2AIF4AIB&sid=3439b60092e6917d40d363dcb25052e7&aid=304142"},
{"latlon": "50.64053101,3.06424141", "address": "\n7/9 Place Louise de Bettignies, Vieux-Lille, 59000 Lille, France\n", "url": "https://www.booking.com/hotel/fr/hoteldelatreillelille.fr.html?label=gen173nr-1FCAEoggI46AdIDVgEaBWIAQGYAQ24ARjIAQ_YAQHoAQH4AQKIAgGoAgS4Ap2NkJMGwAIB0gIkOTcxMjMxMjQtOWU1ZS00ZWY2LTk5NjAtMzUzNzg3N2QzMTBl2AIF4AIB&sid=3439b60092e6917d40d363dcb25052e7&aid=304142"},
{"latlon": "50.63479570,3.06413278", "address": "\n10 Rue De B\u00e9thune (adresse postale) / Entr\u00e9e rue de la Vieille Com\u00e9die, Centre de Lille, 59000 Lille, France\n", "url": "https://www.booking.com/hotel/fr/k.fr.html?label=gen173nr-1FCAEoggI46AdIDVgEaBWIAQGYAQ24ARjIAQ_YAQHoAQH4AQKIAgGoAgS4Ap2NkJMGwAIB0gIkOTcxMjMxMjQtOWU1ZS00ZWY2LTk5NjAtMzUzNzg3N2QzMTBl2AIF4AIB&sid=3439b60092e6917d40d363dcb25052e7&aid=304142"},
{"latlon": "49.44454400,1.09117800", "address": "\n13 rue Dinanderie, 76000 Rouen, France\n", "url": "https://www.booking.com/hotel/fr/l-39-autel-rouen.fr.html?label=gen173nr-1FCAEoggI46AdIDVgEaBWIAQGYAQ24ARjIAQ_YAQHoAQH4AQKIAgGoAgS4Ap2NkJMGwAIB0gIkOTcxMjMxMjQtOWU1ZS00ZWY2LTk5NjAtMzUzNzg3N2QzMTBl2AIF4AIB&sid=3439b60092e6917d40d363dcb25052e7&aid=304142"},
{"latlon": "49.44644100,1.09412000", "address": "\n6-8 Rue du Donjon, 76000 Rouen, France\n", "url": "https://www.booking.com/hotel/fr/radisson-blu-rouen-centre.fr.html?label=gen173nr-1FCAEoggI46AdIDVgEaBWIAQGYAQ24ARjIAQ_YAQHoAQH4AQKIAgGoAgS4Ap2NkJMGwAIB0gIkOTcxMjMxMjQtOWU1ZS00ZWY2LTk5NjAtMzUzNzg3N2QzMTBl2AIF4AIB&sid=3439b60092e6917d40d363dcb25052e7&aid=304142"},
{"latlon": "49.44465180,1.09132620", "address": "\n20 Rue Dinanderie, 76000 Rouen, France\n", "url": "https://www.booking.com/hotel/fr/maison-hypercentre-rouen-tout-confort.fr.html?label=gen173nr-1FCAEoggI46AdIDVgEaBWIAQGYAQ24ARjIAQ_YAQHoAQH4AQKIAgGoAgS4Ap2NkJMGwAIB0gIkOTcxMjMxMjQtOWU1ZS00ZWY2LTk5NjAtMzUzNzg3N2QzMTBl2AIF4AIB&sid=3439b60092e6917d40d363dcb25052e7&aid=304142"},
{"latlon": "49.44306423,1.08660311", "address": "\n33 rue du Vieux Palais / 15 rue de la Pie, 76000 Rouen, France\n", "url": "https://www.booking.com/hotel/fr/hotellitterairegustaveflaubert.fr.html?label=gen173nr-1FCAEoggI46AdIDVgEaBWIAQGYAQ24ARjIAQ_YAQHoAQH4AQKIAgGoAgS4Ap2NkJMGwAIB0gIkOTcxMjMxMjQtOWU1ZS00ZWY2LTk5NjAtMzUzNzg3N2QzMTBl2AIF4AIB&sid=3439b60092e6917d40d363dcb25052e7&aid=304142"},
{"latlon": "49.44117285,1.09517545", "address": "\n7 Rue Croix de Fer, 76000 Rouen, France\n", "url": "https://www.booking.com/hotel/fr/mercure-rouen-centre.fr.html?label=gen173nr-1FCAEoggI46AdIDVgEaBWIAQGYAQ24ARjIAQ_YAQHoAQH4AQKIAgGoAgS4Ap2NkJMGwAIB0gIkOTcxMjMxMjQtOWU1ZS00ZWY2LTk5NjAtMzUzNzg3N2QzMTBl2AIF4AIB&sid=3439b60092e6917d40d363dcb25052e7&aid=304142"},
{"latlon": "49.44197641,1.09243892", "address": "\n45 Rue Aux Juifs, 76000 Rouen, France\n", "url": "https://www.booking.com/hotel/fr/les-inities-rouen.fr.html?label=gen173nr-1FCAEoggI46AdIDVgEaBWIAQGYAQ24ARjIAQ_YAQHoAQH4AQKIAgGoAgS4Ap2NkJMGwAIB0gIkOTcxMjMxMjQtOWU1ZS00ZWY2LTk5NjAtMzUzNzg3N2QzMTBl2AIF4AIB&sid=3439b60092e6917d40d363dcb25052e7&aid=304142"},
{"latlon": "49.44332714,1.09457396", "address": "\n34 rue Ganterie, 76000 Rouen, France\n", "url": "https://www.booking.com/hotel/fr/le-vieux-carre.fr.html?label=gen173nr-1FCAEoggI46AdIDVgEaBWIAQGYAQ24ARjIAQ_YAQHoAQH4AQKIAgGoAgS4Ap2NkJMGwAIB0gIkOTcxMjMxMjQtOWU1ZS00ZWY2LTk5NjAtMzUzNzg3N2QzMTBl2AIF4AIB&sid=3439b60092e6917d40d363dcb25052e7&aid=304142"},
{"latlon": "49.42998800,1.07239800", "address": "\n103 Avenue Jean Rondeaux, 76100 Rouen, France\n", "url": "https://www.booking.com/hotel/fr/holiday-inn-express-rouen-centre-rive-gauche.fr.html?label=gen173nr-1FCAEoggI46AdIDVgEaBWIAQGYAQ24ARjIAQ_YAQHoAQH4AQKIAgGoAgS4Ap2NkJMGwAIB0gIkOTcxMjMxMjQtOWU1ZS00ZWY2LTk5NjAtMzUzNzg3N2QzMTBl2AIF4AIB&sid=3439b60092e6917d40d363dcb25052e7&aid=304142"},
{"latlon": "49.43948371,1.08725488", "address": "\n21 Quai Du Havre, 76000 Rouen, France\n", "url": "https://www.booking.com/hotel/fr/hotelleviking.fr.html?label=gen173nr-1FCAEoggI46AdIDVgEaBWIAQGYAQ24ARjIAQ_YAQHoAQH4AQKIAgGoAgS4Ap2NkJMGwAIB0gIkOTcxMjMxMjQtOWU1ZS00ZWY2LTk5NjAtMzUzNzg3N2QzMTBl2AIF4AIB&sid=3439b60092e6917d40d363dcb25052e7&aid=304142"},
{"latlon": "49.44011681,1.09693363", "address": "\n12 Rue Saint Romain, 76000 Rouen, France\n", "url": "https://www.booking.com/hotel/fr/de-la-cathedrale.fr.html?label=gen173nr-1FCAEoggI46AdIDVgEaBWIAQGYAQ24ARjIAQ_YAQHoAQH4AQKIAgGoAgS4Ap2NkJMGwAIB0gIkOTcxMjMxMjQtOWU1ZS00ZWY2LTk5NjAtMzUzNzg3N2QzMTBl2AIF4AIB&sid=3439b60092e6917d40d363dcb25052e7&aid=304142"},
{"latlon": "49.43783419,1.09725282", "address": "\n18-24 Rue De Quebec, 76000 Rouen, France\n", "url": "https://www.booking.com/hotel/fr/alive-hotel-de-quebec.fr.html?label=gen173nr-1FCAEoggI46AdIDVgEaBWIAQGYAQ24ARjIAQ_YAQHoAQH4AQKIAgGoAgS4Ap2NkJMGwAIB0gIkOTcxMjMxMjQtOWU1ZS00ZWY2LTk5NjAtMzUzNzg3N2QzMTBl2AIF4AIB&sid=3439b60092e6917d40d363dcb25052e7&aid=304142"},
{"latlon": "49.43869536,1.10920340", "address": "\n33 Boulevard Gambetta, 76000 Rouen, France\n", "url": "https://www.booking.com/hotel/fr/le-relais-des-2-rivieres.fr.html?label=gen173nr-1FCAEoggI46AdIDVgEaBWIAQGYAQ24ARjIAQ_YAQHoAQH4AQKIAgGoAgS4Ap2NkJMGwAIB0gIkOTcxMjMxMjQtOWU1ZS00ZWY2LTk5NjAtMzUzNzg3N2QzMTBl2AIF4AIB&sid=3439b60092e6917d40d363dcb25052e7&aid=304142"},
{"latlon": "49.43853490,1.09345078", "address": "\n4 Rue De La Savonnerie, 76000 Rouen, France\n", "url": "https://www.booking.com/hotel/fr/hotel-notre-dame.fr.html?label=gen173nr-1FCAEoggI46AdIDVgEaBWIAQGYAQ24ARjIAQ_YAQHoAQH4AQKIAgGoAgS4Ap2NkJMGwAIB0gIkOTcxMjMxMjQtOWU1ZS00ZWY2LTk5NjAtMzUzNzg3N2QzMTBl2AIF4AIB&sid=3439b60092e6917d40d363dcb25052e7&aid=304142"},
{"latlon": "49.44569975,1.09452300", "address": "\n1 Rue Morand, 76000 Rouen, France\n", "url": "https://www.booking.com/hotel/fr/lemorand.fr.html?label=gen173nr-1FCAEoggI46AdIDVgEaBWIAQGYAQ24ARjIAQ_YAQHoAQH4AQKIAgGoAgS4Ap2NkJMGwAIB0gIkOTcxMjMxMjQtOWU1ZS00ZWY2LTk5NjAtMzUzNzg3N2QzMTBl2AIF4AIB&sid=3439b60092e6917d40d363dcb25052e7&aid=304142"},
{"latlon": "49.44217800,1.08887600", "address": "\n15 Place De La Pucelle, 76000 Rouen, France\n", "url": "https://www.booking.com/hotel/fr/de-bourgtheroulde.fr.html?label=gen173nr-1FCAEoggI46AdIDVgEaBWIAQGYAQ24ARjIAQ_YAQHoAQH4AQKIAgGoAgS4Ap2NkJMGwAIB0gIkOTcxMjMxMjQtOWU1ZS00ZWY2LTk5NjAtMzUzNzg3N2QzMTBl2AIF4AIB&sid=3439b60092e6917d40d363dcb25052e7&aid=304142"},
{"latlon": "49.44396290,1.08896000", "address": "\nEtage 3 11 Rue de l'Ancienne Prison, 76000 Rouen, France\n", "url": "https://www.booking.com/hotel/fr/la-tour-de-jeanne-hypercentre-charme-et-design.fr.html?label=gen173nr-1FCAEoggI46AdIDVgEaBWIAQGYAQ24ARjIAQ_YAQHoAQH4AQKIAgGoAgS4Ap2NkJMGwAIB0gIkOTcxMjMxMjQtOWU1ZS00ZWY2LTk5NjAtMzUzNzg3N2QzMTBl2AIF4AIB&sid=3439b60092e6917d40d363dcb25052e7&aid=304142"},
{"latlon": "49.43745400,1.09618300", "address": "\n9 Place De La Republique, 76000 Rouen, France\n", "url": "https://www.booking.com/hotel/fr/ibis-styles-rouen-centre-cathedrale.fr.html?label=gen173nr-1FCAEoggI46AdIDVgEaBWIAQGYAQ24ARjIAQ_YAQHoAQH4AQKIAgGoAgS4Ap2NkJMGwAIB0gIkOTcxMjMxMjQtOWU1ZS00ZWY2LTk5NjAtMzUzNzg3N2QzMTBl2AIF4AIB&sid=3439b60092e6917d40d363dcb25052e7&aid=304142"},
{"latlon": "49.44426600,1.09632100", "address": "\n39 Rue Beauvoisine, 76000 Rouen, France\n", "url": "https://www.booking.com/hotel/fr/nuit-zen-rouen.fr.html?label=gen173nr-1FCAEoggI46AdIDVgEaBWIAQGYAQ24ARjIAQ_YAQHoAQH4AQKIAgGoAgS4Ap2NkJMGwAIB0gIkOTcxMjMxMjQtOWU1ZS00ZWY2LTk5NjAtMzUzNzg3N2QzMTBl2AIF4AIB&sid=3439b60092e6917d40d363dcb25052e7&aid=304142"},
{"latlon": "49.45252510,1.09281010", "address": "\n18 Rue Malatir\u00e9, 76000 Rouen, France\n", "url": "https://www.booking.com/hotel/fr/maison-cosyrouen-malatire-gare-6-couchages.fr.html?label=gen173nr-1FCAEoggI46AdIDVgEaBWIAQGYAQ24ARjIAQ_YAQHoAQH4AQKIAgGoAgS4Ap2NkJMGwAIB0gIkOTcxMjMxMjQtOWU1ZS00ZWY2LTk5NjAtMzUzNzg3N2QzMTBl2AIF4AIB&sid=3439b60092e6917d40d363dcb25052e7&aid=304142"},
{"latlon": "49.44358481,1.09777585", "address": "\n3 Rue Jean Lecanuet, 76000 Rouen, France\n", "url": "https://www.booking.com/hotel/fr/brit-versan.fr.html?label=gen173nr-1FCAEoggI46AdIDVgEaBWIAQGYAQ24ARjIAQ_YAQHoAQH4AQKIAgGoAgS4Ap2NkJMGwAIB0gIkOTcxMjMxMjQtOWU1ZS00ZWY2LTk5NjAtMzUzNzg3N2QzMTBl2AIF4AIB&sid=3439b60092e6917d40d363dcb25052e7&aid=304142"},
{"latlon": "49.44480400,1.10764500", "address": "\n1 Rue Daliphard, 76000 Rouen, France\n", "url": "https://www.booking.com/hotel/fr/coeur-de-seine-rouen.fr.html?label=gen173nr-1FCAEoggI46AdIDVgEaBWIAQGYAQ24ARjIAQ_YAQHoAQH4AQKIAgGoAgS4Ap2NkJMGwAIB0gIkOTcxMjMxMjQtOWU1ZS00ZWY2LTk5NjAtMzUzNzg3N2QzMTBl2AIF4AIB&sid=3439b60092e6917d40d363dcb25052e7&aid=304142"},
{"latlon": "49.44628060,1.08688840", "address": "\n10 Rampe Cauchoise, 76000 Rouen, France\n", "url": "https://www.booking.com/hotel/fr/la-cauchoise-appart-spacieux-moderne.fr.html?label=gen173nr-1FCAEoggI46AdIDVgEaBWIAQGYAQ24ARjIAQ_YAQHoAQH4AQKIAgGoAgS4Ap2NkJMGwAIB0gIkOTcxMjMxMjQtOWU1ZS00ZWY2LTk5NjAtMzUzNzg3N2QzMTBl2AIF4AIB&sid=3439b60092e6917d40d363dcb25052e7&aid=304142"},
{"latlon": "49.44164990,1.11061080", "address": "\nRez-de-Jardin 10 Rue Eau de Robec, 76000 Rouen, France\n", "url": "https://www.booking.com/hotel/fr/welk-39-home-armada-loft-chu-coeur-historique-47-4p.fr.html?label=gen173nr-1FCAEoggI46AdIDVgEaBWIAQGYAQ24ARjIAQ_YAQHoAQH4AQKIAgGoAgS4Ap2NkJMGwAIB0gIkOTcxMjMxMjQtOWU1ZS00ZWY2LTk5NjAtMzUzNzg3N2QzMTBl2AIF4AIB&sid=3439b60092e6917d40d363dcb25052e7&aid=304142"},
{"latlon": "49.45028530,1.08908980", "address": "\n58 Rue Bouquet, 76000 Rouen, France\n", "url": "https://www.booking.com/hotel/fr/ermitage-bouquet-rouen.fr.html?label=gen173nr-1FCAEoggI46AdIDVgEaBWIAQGYAQ24ARjIAQ_YAQHoAQH4AQKIAgGoAgS4Ap2NkJMGwAIB0gIkOTcxMjMxMjQtOWU1ZS00ZWY2LTk5NjAtMzUzNzg3N2QzMTBl2AIF4AIB&sid=3439b60092e6917d40d363dcb25052e7&aid=304142"},
{"latlon": "49.44365800,1.09055700", "address": "\n77 rue ecuyere, 76000 Rouen, France\n", "url": "https://www.booking.com/hotel/fr/studi-39-home.fr.html?label=gen173nr-1FCAEoggI46AdIDVgEaBWIAQGYAQ24ARjIAQ_YAQHoAQH4AQKIAgGoAgS4Ap2NkJMGwAIB0gIkOTcxMjMxMjQtOWU1ZS00ZWY2LTk5NjAtMzUzNzg3N2QzMTBl2AIF4AIB&sid=3439b60092e6917d40d363dcb25052e7&aid=304142"},
{"latlon": "49.49227908,0.12310803", "address": "\n211 Boulevard de Strasbourg, Perret, 76600 Le Havre, France\n", "url": "https://www.booking.com/hotel/fr/la-baraka.fr.html?label=gen173nr-1FCAEoggI46AdIDVgEaBWIAQGYAQ24ARjIAQ_YAQHoAQH4AQKIAgGoAgS4Ap2NkJMGwAIB0gIkOTcxMjMxMjQtOWU1ZS00ZWY2LTk5NjAtMzUzNzg3N2QzMTBl2AIF4AIB&sid=3439b60092e6917d40d363dcb25052e7&aid=304142"},
{"latlon": "49.49823800,0.12883700", "address": "\n126 Cours De La Republique, 76600 Le Havre, France\n", "url": "https://www.booking.com/hotel/fr/campanile-le-havre-centre.fr.html?label=gen173nr-1FCAEoggI46AdIDVgEaBWIAQGYAQ24ARjIAQ_YAQHoAQH4AQKIAgGoAgS4Ap2NkJMGwAIB0gIkOTcxMjMxMjQtOWU1ZS00ZWY2LTk5NjAtMzUzNzg3N2QzMTBl2AIF4AIB&sid=3439b60092e6917d40d363dcb25052e7&aid=304142"},
{"latlon": "49.49331760,0.12530688", "address": "\n5 rue Magellan, 76600 Le Havre, France\n", "url": "https://www.booking.com/hotel/fr/nomad-le-havre.fr.html?label=gen173nr-1FCAEoggI46AdIDVgEaBWIAQGYAQ24ARjIAQ_YAQHoAQH4AQKIAgGoAgS4Ap2NkJMGwAIB0gIkOTcxMjMxMjQtOWU1ZS00ZWY2LTk5NjAtMzUzNzg3N2QzMTBl2AIF4AIB&sid=3439b60092e6917d40d363dcb25052e7&aid=304142"},
{"latlon": "49.49008699,0.09774696", "address": "\n128 Boulevard Clemenceau, Perret, 76600 Le Havre, France\n", "url": "https://www.booking.com/hotel/fr/hilton-garden-inn-le-havre-centre.fr.html?label=gen173nr-1FCAEoggI46AdIDVgEaBWIAQGYAQ24ARjIAQ_YAQHoAQH4AQKIAgGoAgS4Ap2NkJMGwAIB0gIkOTcxMjMxMjQtOWU1ZS00ZWY2LTk5NjAtMzUzNzg3N2QzMTBl2AIF4AIB&sid=3439b60092e6917d40d363dcb25052e7&aid=304142"},
{"latlon": "49.49641693,0.15151234", "address": "\nRue Nungesser et Coli, 76600 Le Havre, France\n", "url": "https://www.booking.com/hotel/fr/premiere-classe-le-havre-centre.fr.html?label=gen173nr-1FCAEoggI46AdIDVgEaBWIAQGYAQ24ARjIAQ_YAQHoAQH4AQKIAgGoAgS4Ap2NkJMGwAIB0gIkOTcxMjMxMjQtOWU1ZS00ZWY2LTk5NjAtMzUzNzg3N2QzMTBl2AIF4AIB&sid=3439b60092e6917d40d363dcb25052e7&aid=304142"},
{"latlon": "49.49117449,0.11193663", "address": "\nPlace Jules Ferry, Perret, 76600 Le Havre, France\n", "url": "https://www.booking.com/hotel/fr/pasino.fr.html?label=gen173nr-1FCAEoggI46AdIDVgEaBWIAQGYAQ24ARjIAQ_YAQHoAQH4AQKIAgGoAgS4Ap2NkJMGwAIB0gIkOTcxMjMxMjQtOWU1ZS00ZWY2LTk5NjAtMzUzNzg3N2QzMTBl2AIF4AIB&sid=3439b60092e6917d40d363dcb25052e7&aid=304142"},
{"latlon": "49.48881105,0.10760218", "address": "\n132 rue de Paris, Perret, 76600 Le Havre, France\n", "url": "https://www.booking.com/hotel/fr/le-richelieu-le-havre.fr.html?label=gen173nr-1FCAEoggI46AdIDVgEaBWIAQGYAQ24ARjIAQ_YAQHoAQH4AQKIAgGoAgS4Ap2NkJMGwAIB0gIkOTcxMjMxMjQtOWU1ZS00ZWY2LTk5NjAtMzUzNzg3N2QzMTBl2AIF4AIB&sid=3439b60092e6917d40d363dcb25052e7&aid=304142"},
{"latlon": "49.49334357,0.12431771", "address": "\n23, Cours De La R\u00e9publique, 76600 Le Havre, France\n", "url": "https://www.booking.com/hotel/fr/hotelterminuslehavre.fr.html?label=gen173nr-1FCAEoggI46AdIDVgEaBWIAQGYAQ24ARjIAQ_YAQHoAQH4AQKIAgGoAgS4Ap2NkJMGwAIB0gIkOTcxMjMxMjQtOWU1ZS00ZWY2LTk5NjAtMzUzNzg3N2QzMTBl2AIF4AIB&sid=3439b60092e6917d40d363dcb25052e7&aid=304142"},
{"latlon": "49.49962464,0.13108090", "address": "\n75 rue JJ rousseau, 76600 Le Havre, France\n", "url": "https://www.booking.com/hotel/fr/les-gites-du-monde-au-havre.fr.html?label=gen173nr-1FCAEoggI46AdIDVgEaBWIAQGYAQ24ARjIAQ_YAQHoAQH4AQKIAgGoAgS4Ap2NkJMGwAIB0gIkOTcxMjMxMjQtOWU1ZS00ZWY2LTk5NjAtMzUzNzg3N2QzMTBl2AIF4AIB&sid=3439b60092e6917d40d363dcb25052e7&aid=304142"},
{"latlon": "49.49033645,0.11681288", "address": "\nChauss\u00e9e Georges Pompidou, 76600 Le Havre, France\n", "url": "https://www.booking.com/hotel/fr/mercure-bassin-du-commerce.fr.html?label=gen173nr-1FCAEoggI46AdIDVgEaBWIAQGYAQ24ARjIAQ_YAQHoAQH4AQKIAgGoAgS4Ap2NkJMGwAIB0gIkOTcxMjMxMjQtOWU1ZS00ZWY2LTk5NjAtMzUzNzg3N2QzMTBl2AIF4AIB&sid=3439b60092e6917d40d363dcb25052e7&aid=304142"},
{"latlon": "49.49493852,0.10553956", "address": "\n15, Rue Georges Braque, Perret, 76600 Le Havre, France\n", "url": "https://www.booking.com/hotel/fr/carmin.fr.html?label=gen173nr-1FCAEoggI46AdIDVgEaBWIAQGYAQ24ARjIAQ_YAQHoAQH4AQKIAgGoAgS4Ap2NkJMGwAIB0gIkOTcxMjMxMjQtOWU1ZS00ZWY2LTk5NjAtMzUzNzg3N2QzMTBl2AIF4AIB&sid=3439b60092e6917d40d363dcb25052e7&aid=304142"},
{"latlon": "49.49141928,0.10070756", "address": "\n4 Rue De Caligny, Perret, 76600 Le Havre, France\n", "url": "https://www.booking.com/hotel/fr/vent-d-ouest-le-havre.fr.html?label=gen173nr-1FCAEoggI46AdIDVgEaBWIAQGYAQ24ARjIAQ_YAQHoAQH4AQKIAgGoAgS4Ap2NkJMGwAIB0gIkOTcxMjMxMjQtOWU1ZS00ZWY2LTk5NjAtMzUzNzg3N2QzMTBl2AIF4AIB&sid=3439b60092e6917d40d363dcb25052e7&aid=304142"},
{"latlon": "49.48981028,0.10710865", "address": "\n106 rue Voltaire, Perret, 76600 Le Havre, France\n", "url": "https://www.booking.com/hotel/fr/celtic.fr.html?label=gen173nr-1FCAEoggI46AdIDVgEaBWIAQGYAQ24ARjIAQ_YAQHoAQH4AQKIAgGoAgS4Ap2NkJMGwAIB0gIkOTcxMjMxMjQtOWU1ZS00ZWY2LTk5NjAtMzUzNzg3N2QzMTBl2AIF4AIB&sid=3439b60092e6917d40d363dcb25052e7&aid=304142"},
{"latlon": "49.50238471,0.08598089", "address": "\n3 Place Clemenceau, Sainte-Adresse, 76310 Le Havre, France\n", "url": "https://www.booking.com/hotel/fr/les-voiles-sur-le-front-de-mer.fr.html?label=gen173nr-1FCAEoggI46AdIDVgEaBWIAQGYAQ24ARjIAQ_YAQHoAQH4AQKIAgGoAgS4Ap2NkJMGwAIB0gIkOTcxMjMxMjQtOWU1ZS00ZWY2LTk5NjAtMzUzNzg3N2QzMTBl2AIF4AIB&sid=3439b60092e6917d40d363dcb25052e7&aid=304142"},
{"latlon": "49.49307270,0.10227340", "address": "\n50 Avenue Foch, Perret, 76600 Le Havre, France\n", "url": "https://www.booking.com/hotel/fr/foch-le-havre.fr.html?label=gen173nr-1FCAEoggI46AdIDVgEaBWIAQGYAQ24ARjIAQ_YAQHoAQH4AQKIAgGoAgS4Ap2NkJMGwAIB0gIkOTcxMjMxMjQtOWU1ZS00ZWY2LTk5NjAtMzUzNzg3N2QzMTBl2AIF4AIB&sid=3439b60092e6917d40d363dcb25052e7&aid=304142"},
{"latlon": "49.49119366,0.10646090", "address": "\n147 Rue Louis Brindeau, Perret, 76600 Le Havre, France\n", "url": "https://www.booking.com/hotel/fr/art.fr.html?label=gen173nr-1FCAEoggI46AdIDVgEaBWIAQGYAQ24ARjIAQ_YAQHoAQH4AQKIAgGoAgS4Ap2NkJMGwAIB0gIkOTcxMjMxMjQtOWU1ZS00ZWY2LTk5NjAtMzUzNzg3N2QzMTBl2AIF4AIB&sid=3439b60092e6917d40d363dcb25052e7&aid=304142"},
{"latlon": "49.49111700,0.10451764", "address": "\n86 rue Louis Brindeau, Perret, 76600 Le Havre, France\n", "url": "https://www.booking.com/hotel/fr/petitvatel.fr.html?label=gen173nr-1FCAEoggI46AdIDVgEaBWIAQGYAQ24ARjIAQ_YAQHoAQH4AQKIAgGoAgS4Ap2NkJMGwAIB0gIkOTcxMjMxMjQtOWU1ZS00ZWY2LTk5NjAtMzUzNzg3N2QzMTBl2AIF4AIB&sid=3439b60092e6917d40d363dcb25052e7&aid=304142"},
{"latlon": "49.49876400,0.13430300", "address": "\n3 rue massillon, 76600 Le Havre, France\n", "url": "https://www.booking.com/hotel/fr/your-place-in-lh-le-havre12.fr.html?label=gen173nr-1FCAEoggI46AdIDVgEaBWIAQGYAQ24ARjIAQ_YAQHoAQH4AQKIAgGoAgS4Ap2NkJMGwAIB0gIkOTcxMjMxMjQtOWU1ZS00ZWY2LTk5NjAtMzUzNzg3N2QzMTBl2AIF4AIB&sid=3439b60092e6917d40d363dcb25052e7&aid=304142"},
{"latlon": "49.48451380,0.13251530", "address": "\n35 Boulevard Amiral Mouchez, 76600 Le Havre, France\n", "url": "https://www.booking.com/hotel/fr/sejour-chez-le-marin.fr.html?label=gen173nr-1FCAEoggI46AdIDVgEaBWIAQGYAQ24ARjIAQ_YAQHoAQH4AQKIAgGoAgS4Ap2NkJMGwAIB0gIkOTcxMjMxMjQtOWU1ZS00ZWY2LTk5NjAtMzUzNzg3N2QzMTBl2AIF4AIB&sid=3439b60092e6917d40d363dcb25052e7&aid=304142"},
{"latlon": "49.49796000,0.11463200", "address": "\n77 bis avenue Ren\u00e9 Coty, 76600 Le Havre, France\n", "url": "https://www.booking.com/hotel/fr/hello-normandie-appart-t3-tout-equipe-quartier-coty-le-havre.fr.html?label=gen173nr-1FCAEoggI46AdIDVgEaBWIAQGYAQ24ARjIAQ_YAQHoAQH4AQKIAgGoAgS4Ap2NkJMGwAIB0gIkOTcxMjMxMjQtOWU1ZS00ZWY2LTk5NjAtMzUzNzg3N2QzMTBl2AIF4AIB&sid=3439b60092e6917d40d363dcb25052e7&aid=304142"},
{"latlon": "49.48997743,0.10282132", "address": "\n24 rue Voltaire, Perret, 76600 Le Havre, France\n", "url": "https://www.booking.com/hotel/fr/apartments-rue-voltaire.fr.html?label=gen173nr-1FCAEoggI46AdIDVgEaBWIAQGYAQ24ARjIAQ_YAQHoAQH4AQKIAgGoAgS4Ap2NkJMGwAIB0gIkOTcxMjMxMjQtOWU1ZS00ZWY2LTk5NjAtMzUzNzg3N2QzMTBl2AIF4AIB&sid=3439b60092e6917d40d363dcb25052e7&aid=304142"},
{"latlon": "49.50123653,0.11174429", "address": "\n294 Rue F\u00e9lix Faure, 76620 Le Havre, France\n", "url": "https://www.booking.com/hotel/fr/le-valmer.fr.html?label=gen173nr-1FCAEoggI46AdIDVgEaBWIAQGYAQ24ARjIAQ_YAQHoAQH4AQKIAgGoAgS4Ap2NkJMGwAIB0gIkOTcxMjMxMjQtOWU1ZS00ZWY2LTk5NjAtMzUzNzg3N2QzMTBl2AIF4AIB&sid=3439b60092e6917d40d363dcb25052e7&aid=304142"},
{"latlon": "49.48800663,0.11446936", "address": "\n99 Rue Dauphine, 76600 Le Havre, France\n", "url": "https://www.booking.com/hotel/fr/residence-dauphine.fr.html?label=gen173nr-1FCAEoggI46AdIDVgEaBWIAQGYAQ24ARjIAQ_YAQHoAQH4AQKIAgGoAgS4Ap2NkJMGwAIB0gIkOTcxMjMxMjQtOWU1ZS00ZWY2LTk5NjAtMzUzNzg3N2QzMTBl2AIF4AIB&sid=3439b60092e6917d40d363dcb25052e7&aid=304142"},
{"latlon": "49.49424468,0.14285243", "address": "\n36 Rue Du Dr Piasceki , 76600 Le Havre, France\n", "url": "https://www.booking.com/hotel/fr/ibis-budget-le-havre-centre.fr.html?label=gen173nr-1FCAEoggI46AdIDVgEaBWIAQGYAQ24ARjIAQ_YAQHoAQH4AQKIAgGoAgS4Ap2NkJMGwAIB0gIkOTcxMjMxMjQtOWU1ZS00ZWY2LTk5NjAtMzUzNzg3N2QzMTBl2AIF4AIB&sid=3439b60092e6917d40d363dcb25052e7&aid=304142"},
{"latlon": "48.59001400,7.73987000", "address": "\n11 Rue des Magasins, 67000 Strasbourg, France\n", "url": "https://www.booking.com/hotel/fr/city-residence-access-strasbourg-strasbourg.fr.html?label=gen173nr-1FCAEoggI46AdIDVgEaBWIAQGYAQ24ARjIAQ_YAQHoAQH4AQKIAgGoAgS4Ap2NkJMGwAIB0gIkOTcxMjMxMjQtOWU1ZS00ZWY2LTk5NjAtMzUzNzg3N2QzMTBl2AIF4AIB&sid=3439b60092e6917d40d363dcb25052e7&aid=304142"},
{"latlon": "49.49670600,0.15222900", "address": "\n64 Rue de Pressens\u00e9, 76600 Le Havre, France\n", "url": "https://www.booking.com/hotel/fr/lh-rooms-location.fr.html?label=gen173nr-1FCAEoggI46AdIDVgEaBWIAQGYAQ24ARjIAQ_YAQHoAQH4AQKIAgGoAgS4Ap2NkJMGwAIB0gIkOTcxMjMxMjQtOWU1ZS00ZWY2LTk5NjAtMzUzNzg3N2QzMTBl2AIF4AIB&sid=3439b60092e6917d40d363dcb25052e7&aid=304142"},
{"latlon": "48.57269177,7.72871353", "address": "\n14, rue des Corroyeurs, 67200 Strasbourg, France\n", "url": "https://www.booking.com/hotel/fr/comforthotelstras.fr.html?label=gen173nr-1FCAEoggI46AdIDVgEaBWIAQGYAQ24ARjIAQ_YAQHoAQH4AQKIAgGoAgS4Ap2NkJMGwAIB0gIkOTcxMjMxMjQtOWU1ZS00ZWY2LTk5NjAtMzUzNzg3N2QzMTBl2AIF4AIB&sid=3439b60092e6917d40d363dcb25052e7&aid=304142"},
{"latlon": "48.59304756,7.71466415", "address": "\n3 all\u00e9e C\u00e9r\u00e8s , 67200 Strasbourg, France\n", "url": "https://www.booking.com/hotel/fr/k-strasbourg.fr.html?label=gen173nr-1FCAEoggI46AdIDVgEaBWIAQGYAQ24ARjIAQ_YAQHoAQH4AQKIAgGoAgS4Ap2NkJMGwAIB0gIkOTcxMjMxMjQtOWU1ZS00ZWY2LTk5NjAtMzUzNzg3N2QzMTBl2AIF4AIB&sid=3439b60092e6917d40d363dcb25052e7&aid=304142"},
{"latlon": "48.57772068,7.73397669", "address": "\n11 rue de Molsheim, 67000 Strasbourg, France\n", "url": "https://www.booking.com/hotel/fr/appart-city-strasbourg.fr.html?label=gen173nr-1FCAEoggI46AdIDVgEaBWIAQGYAQ24ARjIAQ_YAQHoAQH4AQKIAgGoAgS4Ap2NkJMGwAIB0gIkOTcxMjMxMjQtOWU1ZS00ZWY2LTk5NjAtMzUzNzg3N2QzMTBl2AIF4AIB&sid=3439b60092e6917d40d363dcb25052e7&aid=304142"},
{"latlon": "48.59108149,7.72709400", "address": "\n16 Rue du bataillon de marche 24, 67200 Strasbourg, France\n", "url": "https://www.booking.com/hotel/fr/origami.fr.html?label=gen173nr-1FCAEoggI46AdIDVgEaBWIAQGYAQ24ARjIAQ_YAQHoAQH4AQKIAgGoAgS4Ap2NkJMGwAIB0gIkOTcxMjMxMjQtOWU1ZS00ZWY2LTk5NjAtMzUzNzg3N2QzMTBl2AIF4AIB&sid=3439b60092e6917d40d363dcb25052e7&aid=304142"},
{"latlon": "48.57154052,7.74525492", "address": "\nRue de la Corderie, 67000 Strasbourg, France\n", "url": "https://www.booking.com/hotel/fr/holiday-inn-express-strasbourg-centre.fr.html?label=gen173nr-1FCAEoggI46AdIDVgEaBWIAQGYAQ24ARjIAQ_YAQHoAQH4AQKIAgGoAgS4Ap2NkJMGwAIB0gIkOTcxMjMxMjQtOWU1ZS00ZWY2LTk5NjAtMzUzNzg3N2QzMTBl2AIF4AIB&sid=3439b60092e6917d40d363dcb25052e7&aid=304142"},
{"latlon": "48.59655677,7.75528550", "address": "\n1 Avenue Herrenschmidt, 67000 Strasbourg, France\n", "url": "https://www.booking.com/hotel/fr/hilton-strasbourg.fr.html?label=gen173nr-1FCAEoggI46AdIDVgEaBWIAQGYAQ24ARjIAQ_YAQHoAQH4AQKIAgGoAgS4Ap2NkJMGwAIB0gIkOTcxMjMxMjQtOWU1ZS00ZWY2LTk5NjAtMzUzNzg3N2QzMTBl2AIF4AIB&sid=3439b60092e6917d40d363dcb25052e7&aid=304142"},
{"latlon": "48.57977292,7.74951205", "address": "\n6 Rue Des Tonneliers, 67000 Strasbourg, France\n", "url": "https://www.booking.com/hotel/fr/la-cruche-d-or.fr.html?label=gen173nr-1FCAEoggI46AdIDVgEaBWIAQGYAQ24ARjIAQ_YAQHoAQH4AQKIAgGoAgS4Ap2NkJMGwAIB0gIkOTcxMjMxMjQtOWU1ZS00ZWY2LTk5NjAtMzUzNzg3N2QzMTBl2AIF4AIB&sid=3439b60092e6917d40d363dcb25052e7&aid=304142"},
{"latlon": "48.60427412,7.70446112", "address": "\n11 All\u00e9e de l\u2019Euro, 67205 Strasbourg, France\n", "url": "https://www.booking.com/hotel/fr/citadines-eurometropole-strasbourg.fr.html?label=gen173nr-1FCAEoggI46AdIDVgEaBWIAQGYAQ24ARjIAQ_YAQHoAQH4AQKIAgGoAgS4Ap2NkJMGwAIB0gIkOTcxMjMxMjQtOWU1ZS00ZWY2LTk5NjAtMzUzNzg3N2QzMTBl2AIF4AIB&sid=3439b60092e6917d40d363dcb25052e7&aid=304142"},
{"latlon": "48.58568600,7.73648300", "address": "\n3 Place De La Gare , 67000 Strasbourg, France\n", "url": "https://www.booking.com/hotel/fr/des-vosges.fr.html?label=gen173nr-1FCAEoggI46AdIDVgEaBWIAQGYAQ24ARjIAQ_YAQHoAQH4AQKIAgGoAgS4Ap2NkJMGwAIB0gIkOTcxMjMxMjQtOWU1ZS00ZWY2LTk5NjAtMzUzNzg3N2QzMTBl2AIF4AIB&sid=3439b60092e6917d40d363dcb25052e7&aid=304142"},
{"latlon": "48.58741328,7.73824275", "address": "\n5C Boulevard du Pr\u00e9sident Wilson, 67000 Strasbourg, France\n", "url": "https://www.booking.com/hotel/fr/lagrange-city-strasbourg.fr.html?label=gen173nr-1FCAEoggI46AdIDVgEaBWIAQGYAQ24ARjIAQ_YAQHoAQH4AQKIAgGoAgS4Ap2NkJMGwAIB0gIkOTcxMjMxMjQtOWU1ZS00ZWY2LTk5NjAtMzUzNzg3N2QzMTBl2AIF4AIB&sid=3439b60092e6917d40d363dcb25052e7&aid=304142"},
{"latlon": "48.58501891,7.73882546", "address": "\n16, rue Kuhn, 67000 Strasbourg, France\n", "url": "https://www.booking.com/hotel/fr/monopolemetropole.fr.html?label=gen173nr-1FCAEoggI46AdIDVgEaBWIAQGYAQ24ARjIAQ_YAQHoAQH4AQKIAgGoAgS4Ap2NkJMGwAIB0gIkOTcxMjMxMjQtOWU1ZS00ZWY2LTk5NjAtMzUzNzg3N2QzMTBl2AIF4AIB&sid=3439b60092e6917d40d363dcb25052e7&aid=304142"},
{"latlon": "48.59173665,7.71170497", "address": "\n1 Rue Armande B\u00e9jart, 67200 Strasbourg, France\n", "url": "https://www.booking.com/hotel/fr/athena-spa.fr.html?label=gen173nr-1FCAEoggI46AdIDVgEaBWIAQGYAQ24ARjIAQ_YAQHoAQH4AQKIAgGoAgS4Ap2NkJMGwAIB0gIkOTcxMjMxMjQtOWU1ZS00ZWY2LTk5NjAtMzUzNzg3N2QzMTBl2AIF4AIB&sid=3439b60092e6917d40d363dcb25052e7&aid=304142"},
{"latlon": "48.58469688,7.73656100", "address": "\n12, Place de la Gare, 67000 Strasbourg, France\n", "url": "https://www.booking.com/hotel/fr/legrandhotel.fr.html?label=gen173nr-1FCAEoggI46AdIDVgEaBWIAQGYAQ24ARjIAQ_YAQHoAQH4AQKIAgGoAgS4Ap2NkJMGwAIB0gIkOTcxMjMxMjQtOWU1ZS00ZWY2LTk5NjAtMzUzNzg3N2QzMTBl2AIF4AIB&sid=3439b60092e6917d40d363dcb25052e7&aid=304142"},
{"latlon": "48.58968500,7.73950800", "address": "\n9 Rue des Magasins, 67000 Strasbourg, France\n", "url": "https://www.booking.com/hotel/fr/golden-tulip-strasbourg-centre-the-garden.fr.html?label=gen173nr-1FCAEoggI46AdIDVgEaBWIAQGYAQ24ARjIAQ_YAQHoAQH4AQKIAgGoAgS4Ap2NkJMGwAIB0gIkOTcxMjMxMjQtOWU1ZS00ZWY2LTk5NjAtMzUzNzg3N2QzMTBl2AIF4AIB&sid=3439b60092e6917d40d363dcb25052e7&aid=304142"},
{"latlon": "48.58906194,7.73879863", "address": "\n1 Rue des Magasins, 67000 Strasbourg, France\n", "url": "https://www.booking.com/hotel/fr/appart-victoria-garden-strasbourg.fr.html?label=gen173nr-1FCAEoggI46AdIDVgEaBWIAQGYAQ24ARjIAQ_YAQHoAQH4AQKIAgGoAgS4Ap2NkJMGwAIB0gIkOTcxMjMxMjQtOWU1ZS00ZWY2LTk5NjAtMzUzNzg3N2QzMTBl2AIF4AIB&sid=3439b60092e6917d40d363dcb25052e7&aid=304142"},
{"latlon": "48.58094495,7.75043070", "address": "\n17-19, rue du Maroquin, 67000 Strasbourg, France\n", "url": "https://www.booking.com/hotel/fr/hotel-de-rohan.fr.html?label=gen173nr-1FCAEoggI46AdIDVgEaBWIAQGYAQ24ARjIAQ_YAQHoAQH4AQKIAgGoAgS4Ap2NkJMGwAIB0gIkOTcxMjMxMjQtOWU1ZS00ZWY2LTk5NjAtMzUzNzg3N2QzMTBl2AIF4AIB&sid=3439b60092e6917d40d363dcb25052e7&aid=304142"},
{"latlon": "48.58387581,7.73722887", "address": "\n7-9 Rue du Maire Kuss, 67000 Strasbourg, France\n", "url": "https://www.booking.com/hotel/fr/hotelvictoria.fr.html?label=gen173nr-1FCAEoggI46AdIDVgEaBWIAQGYAQ24ARjIAQ_YAQHoAQH4AQKIAgGoAgS4Ap2NkJMGwAIB0gIkOTcxMjMxMjQtOWU1ZS00ZWY2LTk5NjAtMzUzNzg3N2QzMTBl2AIF4AIB&sid=3439b60092e6917d40d363dcb25052e7&aid=304142"},
{"latlon": "48.58081453,7.74618611", "address": "\n7 Rue De La Cha\u00eene, 67000 Strasbourg, France\n", "url": "https://www.booking.com/hotel/fr/des-francs-bourgeois.fr.html?label=gen173nr-1FCAEoggI46AdIDVgEaBWIAQGYAQ24ARjIAQ_YAQHoAQH4AQKIAgGoAgS4Ap2NkJMGwAIB0gIkOTcxMjMxMjQtOWU1ZS00ZWY2LTk5NjAtMzUzNzg3N2QzMTBl2AIF4AIB&sid=3439b60092e6917d40d363dcb25052e7&aid=304142"},
{"latlon": "48.58031945,7.75127023", "address": "\n10 Place du March\u00e9 aux Cochons de Lait, 67000 Strasbourg, France\n", "url": "https://www.booking.com/hotel/fr/citotel-des-arts.fr.html?label=gen173nr-1FCAEoggI46AdIDVgEaBWIAQGYAQ24ARjIAQ_YAQHoAQH4AQKIAgGoAgS4Ap2NkJMGwAIB0gIkOTcxMjMxMjQtOWU1ZS00ZWY2LTk5NjAtMzUzNzg3N2QzMTBl2AIF4AIB&sid=3439b60092e6917d40d363dcb25052e7&aid=304142"},
{"latlon": "48.58279611,7.74312839", "address": "\n15, rue du 22 Novembre, 67000 Strasbourg, France\n", "url": "https://www.booking.com/hotel/fr/tihannong.fr.html?label=gen173nr-1FCAEoggI46AdIDVgEaBWIAQGYAQ24ARjIAQ_YAQHoAQH4AQKIAgGoAgS4Ap2NkJMGwAIB0gIkOTcxMjMxMjQtOWU1ZS00ZWY2LTk5NjAtMzUzNzg3N2QzMTBl2AIF4AIB&sid=3439b60092e6917d40d363dcb25052e7&aid=304142"},
{"latlon": "48.58373253,7.74504483", "address": "\n29 Place Kleber, 67000 Strasbourg, France\n", "url": "https://www.booking.com/hotel/fr/le-kleber.fr.html?label=gen173nr-1FCAEoggI46AdIDVgEaBWIAQGYAQ24ARjIAQ_YAQHoAQH4AQKIAgGoAgS4Ap2NkJMGwAIB0gIkOTcxMjMxMjQtOWU1ZS00ZWY2LTk5NjAtMzUzNzg3N2QzMTBl2AIF4AIB&sid=3439b60092e6917d40d363dcb25052e7&aid=304142"},
{"latlon": "48.56936600,7.77756900", "address": "\n29 Avenue Aristide Briand, 67100 Strasbourg, France\n", "url": "https://www.booking.com/hotel/fr/ibis-strasbourg-avenue-du-rhin.fr.html?label=gen173nr-1FCAEoggI46AdIDVgEaBWIAQGYAQ24ARjIAQ_YAQHoAQH4AQKIAgGoAgS4Ap2NkJMGwAIB0gIkOTcxMjMxMjQtOWU1ZS00ZWY2LTk5NjAtMzUzNzg3N2QzMTBl2AIF4AIB&sid=3439b60092e6917d40d363dcb25052e7&aid=304142"},
{"latlon": "48.58384564,7.74342477", "address": "\n50-54 Rue Du Jeu Des Enfants, 67000 Strasbourg, France\n", "url": "https://www.booking.com/hotel/fr/citadines-aparthotel-strasbourg.fr.html?label=gen173nr-1FCAEoggI46AdIDVgEaBWIAQGYAQ24ARjIAQ_YAQHoAQH4AQKIAgGoAgS4Ap2NkJMGwAIB0gIkOTcxMjMxMjQtOWU1ZS00ZWY2LTk5NjAtMzUzNzg3N2QzMTBl2AIF4AIB&sid=3439b60092e6917d40d363dcb25052e7&aid=304142"},
{"latlon": "48.58264680,7.73353280", "address": "\n53 Rue de la Course, 67000 Strasbourg, France\n", "url": "https://www.booking.com/hotel/fr/magnifique-appartement-feng-shui.fr.html?label=gen173nr-1FCAEoggI46AdIDVgEaBWIAQGYAQ24ARjIAQ_YAQHoAQH4AQKIAgGoAgS4Ap2NkJMGwAIB0gIkOTcxMjMxMjQtOWU1ZS00ZWY2LTk5NjAtMzUzNzg3N2QzMTBl2AIF4AIB&sid=3439b60092e6917d40d363dcb25052e7&aid=304142"},
{"latlon": "48.24840250,7.35482570", "address": "\nSchaflager, 67600 Orschwiller, France\n", "url": "https://www.booking.com/hotel/fr/gite-l-oree-du-chateau-appartement-cerise.fr.html?label=gen173nr-1FCAEoggI46AdIDVgEaBWIAQGYAQ24ARjIAQ_YAQHoAQH4AQKIAgGoAgS4Ap2NkJMGwAIB0gIkOTcxMjMxMjQtOWU1ZS00ZWY2LTk5NjAtMzUzNzg3N2QzMTBl2AIF4AIB&sid=3439b60092e6917d40d363dcb25052e7&aid=304142"},
{"latlon": "48.24702280,7.34632093", "address": "\nRoute du Haut-Koenigsbourg, 67600 Orschwiller, France\n", "url": "https://www.booking.com/hotel/fr/les-chambres-du-haut-koenigsbourg.fr.html?label=gen173nr-1FCAEoggI46AdIDVgEaBWIAQGYAQ24ARjIAQ_YAQHoAQH4AQKIAgGoAgS4Ap2NkJMGwAIB0gIkOTcxMjMxMjQtOWU1ZS00ZWY2LTk5NjAtMzUzNzg3N2QzMTBl2AIF4AIB&sid=3439b60092e6917d40d363dcb25052e7&aid=304142"},
{"latlon": "48.24834892,7.35484448", "address": "\nSchaflager, 67600 Orschwiller, France\n", "url": "https://www.booking.com/hotel/fr/gite-l-39-oree-du-chateau.fr.html?label=gen173nr-1FCAEoggI46AdIDVgEaBWIAQGYAQ24ARjIAQ_YAQHoAQH4AQKIAgGoAgS4Ap2NkJMGwAIB0gIkOTcxMjMxMjQtOWU1ZS00ZWY2LTk5NjAtMzUzNzg3N2QzMTBl2AIF4AIB&sid=3439b60092e6917d40d363dcb25052e7&aid=304142"},
{"latlon": "48.23279891,7.36544251", "address": "\n4 route du Haut Koenigsbourg, 68590 Saint-Hippolyte, France\n", "url": "https://www.booking.com/hotel/fr/gite-chez-jean.fr.html?label=gen173nr-1FCAEoggI46AdIDVgEaBWIAQGYAQ24ARjIAQ_YAQHoAQH4AQKIAgGoAgS4Ap2NkJMGwAIB0gIkOTcxMjMxMjQtOWU1ZS00ZWY2LTk5NjAtMzUzNzg3N2QzMTBl2AIF4AIB&sid=3439b60092e6917d40d363dcb25052e7&aid=304142"},
{"latlon": "48.23481955,7.36778677", "address": "\n23, chemin du Wall, 68590 Saint-Hippolyte, France\n", "url": "https://www.booking.com/hotel/fr/val-vignes.fr.html?label=gen173nr-1FCAEoggI46AdIDVgEaBWIAQGYAQ24ARjIAQ_YAQHoAQH4AQKIAgGoAgS4Ap2NkJMGwAIB0gIkOTcxMjMxMjQtOWU1ZS00ZWY2LTk5NjAtMzUzNzg3N2QzMTBl2AIF4AIB&sid=3439b60092e6917d40d363dcb25052e7&aid=304142"},
{"latlon": "48.23310978,7.36780018", "address": "\n66 Route Du Vin, 68590 Saint-Hippolyte, France\n", "url": "https://www.booking.com/hotel/fr/a-la-vignette.fr.html?label=gen173nr-1FCAEoggI46AdIDVgEaBWIAQGYAQ24ARjIAQ_YAQHoAQH4AQKIAgGoAgS4Ap2NkJMGwAIB0gIkOTcxMjMxMjQtOWU1ZS00ZWY2LTk5NjAtMzUzNzg3N2QzMTBl2AIF4AIB&sid=3439b60092e6917d40d363dcb25052e7&aid=304142"},
{"latlon": "48.24415784,7.32693552", "address": "\nLieu-dit Schaentzel, 68590 Thannenkirch, France\n", "url": "https://www.booking.com/hotel/fr/logis-du-haut-koenigsbourg.fr.html?label=gen173nr-1FCAEoggI46AdIDVgEaBWIAQGYAQ24ARjIAQ_YAQHoAQH4AQKIAgGoAgS4Ap2NkJMGwAIB0gIkOTcxMjMxMjQtOWU1ZS00ZWY2LTk5NjAtMzUzNzg3N2QzMTBl2AIF4AIB&sid=3439b60092e6917d40d363dcb25052e7&aid=304142"},
{"latlon": "48.23240406,7.36546665", "address": "\n6, Rue Du Parc, 68590 Saint-Hippolyte, France\n", "url": "https://www.booking.com/hotel/fr/logis-le-parc-st-hippolyte.fr.html?label=gen173nr-1FCAEoggI46AdIDVgEaBWIAQGYAQ24ARjIAQ_YAQHoAQH4AQKIAgGoAgS4Ap2NkJMGwAIB0gIkOTcxMjMxMjQtOWU1ZS00ZWY2LTk5NjAtMzUzNzg3N2QzMTBl2AIF4AIB&sid=3439b60092e6917d40d363dcb25052e7&aid=304142"},
{"latlon": "48.23308298,7.36801207", "address": "\n63 route du Vin, 68590 Saint-Hippolyte, France\n", "url": "https://www.booking.com/hotel/fr/chambres-d-ha-tes-franassois-bleger.fr.html?label=gen173nr-1FCAEoggI46AdIDVgEaBWIAQGYAQ24ARjIAQ_YAQHoAQH4AQKIAgGoAgS4Ap2NkJMGwAIB0gIkOTcxMjMxMjQtOWU1ZS00ZWY2LTk5NjAtMzUzNzg3N2QzMTBl2AIF4AIB&sid=3439b60092e6917d40d363dcb25052e7&aid=304142"},
{"latlon": "48.23316410,7.36827450", "address": "\n61 Route du Vin, 68590 Saint-Hippolyte, France\n", "url": "https://www.booking.com/hotel/fr/le-hupsa-pfannala.fr.html?label=gen173nr-1FCAEoggI46AdIDVgEaBWIAQGYAQ24ARjIAQ_YAQHoAQH4AQKIAgGoAgS4Ap2NkJMGwAIB0gIkOTcxMjMxMjQtOWU1ZS00ZWY2LTk5NjAtMzUzNzg3N2QzMTBl2AIF4AIB&sid=3439b60092e6917d40d363dcb25052e7&aid=304142"},
{"latlon": "48.23278210,7.36776160", "address": "\n71 Route du Vin, 68590 Saint-Hippolyte, France\n", "url": "https://www.booking.com/hotel/fr/chambres-d-39-hotes-du-domaine-achille-thirion.fr.html?label=gen173nr-1FCAEoggI46AdIDVgEaBWIAQGYAQ24ARjIAQ_YAQHoAQH4AQKIAgGoAgS4Ap2NkJMGwAIB0gIkOTcxMjMxMjQtOWU1ZS00ZWY2LTk5NjAtMzUzNzg3N2QzMTBl2AIF4AIB&sid=3439b60092e6917d40d363dcb25052e7&aid=304142"},
{"latlon": "48.23262530,7.36761050", "address": "\n71 Route du Vin, 68590 Saint-Hippolyte, France\n", "url": "https://www.booking.com/hotel/fr/gites-thirion-saint-hippolyte.fr.html?label=gen173nr-1FCAEoggI46AdIDVgEaBWIAQGYAQ24ARjIAQ_YAQHoAQH4AQKIAgGoAgS4Ap2NkJMGwAIB0gIkOTcxMjMxMjQtOWU1ZS00ZWY2LTk5NjAtMzUzNzg3N2QzMTBl2AIF4AIB&sid=3439b60092e6917d40d363dcb25052e7&aid=304142"},
{"latlon": "48.23201600,7.36781700", "address": "\n17 Rue Saint-Fulrade, 68590 Saint-Hippolyte, France\n", "url": "https://www.booking.com/hotel/fr/la-bacchante.fr.html?label=gen173nr-1FCAEoggI46AdIDVgEaBWIAQGYAQ24ARjIAQ_YAQHoAQH4AQKIAgGoAgS4Ap2NkJMGwAIB0gIkOTcxMjMxMjQtOWU1ZS00ZWY2LTk5NjAtMzUzNzg3N2QzMTBl2AIF4AIB&sid=3439b60092e6917d40d363dcb25052e7&aid=304142"},
{"latlon": "48.23126700,7.36563900", "address": "\n92 ROUTE DU VIN, 68590 Saint-Hippolyte, France\n", "url": "https://www.booking.com/hotel/fr/domaine-du-winmuehl.fr.html?label=gen173nr-1FCAEoggI46AdIDVgEaBWIAQGYAQ24ARjIAQ_YAQHoAQH4AQKIAgGoAgS4Ap2NkJMGwAIB0gIkOTcxMjMxMjQtOWU1ZS00ZWY2LTk5NjAtMzUzNzg3N2QzMTBl2AIF4AIB&sid=3439b60092e6917d40d363dcb25052e7&aid=304142"},
{"latlon": "48.23306340,7.36852060", "address": "\n57 Route du Vin, 68590 Saint-Hippolyte, France\n", "url": "https://www.booking.com/hotel/fr/appart-le-coucou.fr.html?label=gen173nr-1FCAEoggI46AdIDVgEaBWIAQGYAQ24ARjIAQ_YAQHoAQH4AQKIAgGoAgS4Ap2NkJMGwAIB0gIkOTcxMjMxMjQtOWU1ZS00ZWY2LTk5NjAtMzUzNzg3N2QzMTBl2AIF4AIB&sid=3439b60092e6917d40d363dcb25052e7&aid=304142"},
{"latlon": "48.23321860,7.36974220", "address": "\n25 Rue du Coll\u00e8ge, 68590 Saint-Hippolyte, France\n", "url": "https://www.booking.com/hotel/fr/les-suites-la-cour-st-fulrad.fr.html?label=gen173nr-1FCAEoggI46AdIDVgEaBWIAQGYAQ24ARjIAQ_YAQHoAQH4AQKIAgGoAgS4Ap2NkJMGwAIB0gIkOTcxMjMxMjQtOWU1ZS00ZWY2LTk5NjAtMzUzNzg3N2QzMTBl2AIF4AIB&sid=3439b60092e6917d40d363dcb25052e7&aid=304142"},
{"latlon": "48.23321860,7.36974220", "address": "\n25 Rue du Coll\u00e8ge, 68590 Saint-Hippolyte, France\n", "url": "https://www.booking.com/hotel/fr/appartements-la-cour-st-fulrad.fr.html?label=gen173nr-1FCAEoggI46AdIDVgEaBWIAQGYAQ24ARjIAQ_YAQHoAQH4AQKIAgGoAgS4Ap2NkJMGwAIB0gIkOTcxMjMxMjQtOWU1ZS00ZWY2LTk5NjAtMzUzNzg3N2QzMTBl2AIF4AIB&sid=3439b60092e6917d40d363dcb25052e7&aid=304142"},
{"latlon": "48.23312599,7.36850759", "address": "\n59 Route du Vin, 68590 Saint-Hippolyte, France\n", "url": "https://www.booking.com/hotel/fr/le-hupsa-pfannala-saint-hippolyte.fr.html?label=gen173nr-1FCAEoggI46AdIDVgEaBWIAQGYAQ24ARjIAQ_YAQHoAQH4AQKIAgGoAgS4Ap2NkJMGwAIB0gIkOTcxMjMxMjQtOWU1ZS00ZWY2LTk5NjAtMzUzNzg3N2QzMTBl2AIF4AIB&sid=3439b60092e6917d40d363dcb25052e7&aid=304142"},
{"latlon": "48.23220300,7.37008100", "address": "\n3 rue du Coll\u00e8ge / 34 route du Vin, 68590 Saint-Hippolyte, France\n", "url": "https://www.booking.com/hotel/fr/maison-d-39-hotes-le-cep-d-39-or.fr.html?label=gen173nr-1FCAEoggI46AdIDVgEaBWIAQGYAQ24ARjIAQ_YAQHoAQH4AQKIAgGoAgS4Ap2NkJMGwAIB0gIkOTcxMjMxMjQtOWU1ZS00ZWY2LTk5NjAtMzUzNzg3N2QzMTBl2AIF4AIB&sid=3439b60092e6917d40d363dcb25052e7&aid=304142"},
{"latlon": "48.24177105,7.37928691", "address": "\n2 Bis Place De La Mairie, 67600 Orschwiller, France\n", "url": "https://www.booking.com/hotel/fr/gite-des-trois.fr.html?label=gen173nr-1FCAEoggI46AdIDVgEaBWIAQGYAQ24ARjIAQ_YAQHoAQH4AQKIAgGoAgS4Ap2NkJMGwAIB0gIkOTcxMjMxMjQtOWU1ZS00ZWY2LTk5NjAtMzUzNzg3N2QzMTBl2AIF4AIB&sid=3439b60092e6917d40d363dcb25052e7&aid=304142"},
{"latlon": "48.24176400,7.37930300", "address": "\n2 place de la mairie, 67600 Orschwiller, France\n", "url": "https://www.booking.com/hotel/fr/annexe-au-gite-des-trois.fr.html?label=gen173nr-1FCAEoggI46AdIDVgEaBWIAQGYAQ24ARjIAQ_YAQHoAQH4AQKIAgGoAgS4Ap2NkJMGwAIB0gIkOTcxMjMxMjQtOWU1ZS00ZWY2LTk5NjAtMzUzNzg3N2QzMTBl2AIF4AIB&sid=3439b60092e6917d40d363dcb25052e7&aid=304142"},
{"latlon": "48.23327616,7.36989498", "address": "\n25 rue du Coll\u00e8ge, 68590 Saint-Hippolyte, France\n", "url": "https://www.booking.com/hotel/fr/chambres-d-39-hotes-la-cour-st-fulrad.fr.html?label=gen173nr-1FCAEoggI46AdIDVgEaBWIAQGYAQ24ARjIAQ_YAQHoAQH4AQKIAgGoAgS4Ap2NkJMGwAIB0gIkOTcxMjMxMjQtOWU1ZS00ZWY2LTk5NjAtMzUzNzg3N2QzMTBl2AIF4AIB&sid=3439b60092e6917d40d363dcb25052e7&aid=304142"},
{"latlon": "48.23234385,7.37064322", "address": "\n3 rue du Coll\u00e8ge - 34 route de Vin, 68590 Saint-Hippolyte, France\n", "url": "https://www.booking.com/hotel/fr/gite-le-cep-d-or-alsace.fr.html?label=gen173nr-1FCAEoggI46AdIDVgEaBWIAQGYAQ24ARjIAQ_YAQHoAQH4AQKIAgGoAgS4Ap2NkJMGwAIB0gIkOTcxMjMxMjQtOWU1ZS00ZWY2LTk5NjAtMzUzNzg3N2QzMTBl2AIF4AIB&sid=3439b60092e6917d40d363dcb25052e7&aid=304142"},
{"latlon": "48.23324199,7.36988962", "address": "\n25 Rue du Coll\u00e8ge, 68590 Saint-Hippolyte, France\n", "url": "https://www.booking.com/hotel/fr/cour-st-fulrad.fr.html?label=gen173nr-1FCAEoggI46AdIDVgEaBWIAQGYAQ24ARjIAQ_YAQHoAQH4AQKIAgGoAgS4Ap2NkJMGwAIB0gIkOTcxMjMxMjQtOWU1ZS00ZWY2LTk5NjAtMzUzNzg3N2QzMTBl2AIF4AIB&sid=3439b60092e6917d40d363dcb25052e7&aid=304142"},
{"latlon": "48.07708620,7.35253250", "address": "\n22 Rue Hertrich, 68000 Colmar, France\n", "url": "https://www.booking.com/hotel/fr/le-parc-standing-apartments-in-front-of-the-champ-de-mars.fr.html?label=gen173nr-1FCAEoggI46AdIDVgEaBWIAQGYAQ24ARjIAQ_YAQHoAQH4AQKIAgGoAgS4Ap2NkJMGwAIB0gIkOTcxMjMxMjQtOWU1ZS00ZWY2LTk5NjAtMzUzNzg3N2QzMTBl2AIF4AIB&sid=3439b60092e6917d40d363dcb25052e7&aid=304142"},
{"latlon": "48.23183948,7.37074524", "address": "\n24 Route du Vin, 68590 Saint-Hippolyte, France\n", "url": "https://www.booking.com/hotel/fr/fahrer-deiss.fr.html?label=gen173nr-1FCAEoggI46AdIDVgEaBWIAQGYAQ24ARjIAQ_YAQHoAQH4AQKIAgGoAgS4Ap2NkJMGwAIB0gIkOTcxMjMxMjQtOWU1ZS00ZWY2LTk5NjAtMzUzNzg3N2QzMTBl2AIF4AIB&sid=3439b60092e6917d40d363dcb25052e7&aid=304142"},
{"latlon": "48.07733814,7.35609418", "address": "\n1 Rue Berthe Molly, 68000 Colmar, France\n", "url": "https://www.booking.com/hotel/fr/aux-bijoux-de-colmar-le-saphir.fr.html?label=gen173nr-1FCAEoggI46AdIDVgEaBWIAQGYAQ24ARjIAQ_YAQHoAQH4AQKIAgGoAgS4Ap2NkJMGwAIB0gIkOTcxMjMxMjQtOWU1ZS00ZWY2LTk5NjAtMzUzNzg3N2QzMTBl2AIF4AIB&sid=3439b60092e6917d40d363dcb25052e7&aid=304142"},
{"latlon": "48.07080074,7.34638973", "address": "\n14 route de Rouffach, 68000 Colmar, France\n", "url": "https://www.booking.com/hotel/fr/colmar.fr.html?label=gen173nr-1FCAEoggI46AdIDVgEaBWIAQGYAQ24ARjIAQ_YAQHoAQH4AQKIAgGoAgS4Ap2NkJMGwAIB0gIkOTcxMjMxMjQtOWU1ZS00ZWY2LTk5NjAtMzUzNzg3N2QzMTBl2AIF4AIB&sid=3439b60092e6917d40d363dcb25052e7&aid=304142"},
{"latlon": "48.08195720,7.35351240", "address": "\n5 Rue de la 5E Division Blind\u00e9e, 68000 Colmar, France\n", "url": "https://www.booking.com/hotel/fr/lucky-place-parking-centre-balcon.fr.html?label=gen173nr-1FCAEoggI46AdIDVgEaBWIAQGYAQ24ARjIAQ_YAQHoAQH4AQKIAgGoAgS4Ap2NkJMGwAIB0gIkOTcxMjMxMjQtOWU1ZS00ZWY2LTk5NjAtMzUzNzg3N2QzMTBl2AIF4AIB&sid=3439b60092e6917d40d363dcb25052e7&aid=304142"},
{"latlon": "48.07879357,7.35761181", "address": "\n6 Rue de Reiset , 2\u00e8me \u00e9tage, 68000 Colmar, France\n", "url": "https://www.booking.com/hotel/fr/gite-hansi.fr.html?label=gen173nr-1FCAEoggI46AdIDVgEaBWIAQGYAQ24ARjIAQ_YAQHoAQH4AQKIAgGoAgS4Ap2NkJMGwAIB0gIkOTcxMjMxMjQtOWU1ZS00ZWY2LTk5NjAtMzUzNzg3N2QzMTBl2AIF4AIB&sid=3439b60092e6917d40d363dcb25052e7&aid=304142"},
{"latlon": "48.07856570,7.36147009", "address": "\n14 RUE VAUBAN, 68000 Colmar, France\n", "url": "https://www.booking.com/hotel/fr/colmarappart-vauban.fr.html?label=gen173nr-1FCAEoggI46AdIDVgEaBWIAQGYAQ24ARjIAQ_YAQHoAQH4AQKIAgGoAgS4Ap2NkJMGwAIB0gIkOTcxMjMxMjQtOWU1ZS00ZWY2LTk5NjAtMzUzNzg3N2QzMTBl2AIF4AIB&sid=3439b60092e6917d40d363dcb25052e7&aid=304142"},
{"latlon": "48.07641026,7.35954888", "address": "\n21 B grand'rue, 68000 Colmar, France\n", "url": "https://www.booking.com/hotel/fr/cotoon-colmar8.fr.html?label=gen173nr-1FCAEoggI46AdIDVgEaBWIAQGYAQ24ARjIAQ_YAQHoAQH4AQKIAgGoAgS4Ap2NkJMGwAIB0gIkOTcxMjMxMjQtOWU1ZS00ZWY2LTk5NjAtMzUzNzg3N2QzMTBl2AIF4AIB&sid=3439b60092e6917d40d363dcb25052e7&aid=304142"},
{"latlon": "48.07969759,7.35236159", "address": "\n15 Rue Stanislas, 68000 Colmar, France\n", "url": "https://www.booking.com/hotel/fr/ibis-budget-colmar-centre-ville.fr.html?label=gen173nr-1FCAEoggI46AdIDVgEaBWIAQGYAQ24ARjIAQ_YAQHoAQH4AQKIAgGoAgS4Ap2NkJMGwAIB0gIkOTcxMjMxMjQtOWU1ZS00ZWY2LTk5NjAtMzUzNzg3N2QzMTBl2AIF4AIB&sid=3439b60092e6917d40d363dcb25052e7&aid=304142"},
{"latlon": "48.09965719,7.36240150", "address": "\n2c rue Timken, 68000 Colmar, France\n", "url": "https://www.booking.com/hotel/fr/comfort-expo-colmar.fr.html?label=gen173nr-1FCAEoggI46AdIDVgEaBWIAQGYAQ24ARjIAQ_YAQHoAQH4AQKIAgGoAgS4Ap2NkJMGwAIB0gIkOTcxMjMxMjQtOWU1ZS00ZWY2LTk5NjAtMzUzNzg3N2QzMTBl2AIF4AIB&sid=3439b60092e6917d40d363dcb25052e7&aid=304142"},
{"latlon": "48.07790332,7.40279764", "address": "\n13, Route De Neuf-Brisach - Horbourg Wihr, 68180 Colmar, France\n", "url": "https://www.booking.com/hotel/fr/ibis-colmar-horbourg-wihr.fr.html?label=gen173nr-1FCAEoggI46AdIDVgEaBWIAQGYAQ24ARjIAQ_YAQHoAQH4AQKIAgGoAgS4Ap2NkJMGwAIB0gIkOTcxMjMxMjQtOWU1ZS00ZWY2LTk5NjAtMzUzNzg3N2QzMTBl2AIF4AIB&sid=3439b60092e6917d40d363dcb25052e7&aid=304142"},
{"latlon": "48.07057919,7.36822870", "address": "\n9 Vorderer semmweg, 68000 Colmar, France\n", "url": "https://www.booking.com/hotel/fr/la-maison-de-vacances-de-colmar-et-son-jardin-4-47-5p.fr.html?label=gen173nr-1FCAEoggI46AdIDVgEaBWIAQGYAQ24ARjIAQ_YAQHoAQH4AQKIAgGoAgS4Ap2NkJMGwAIB0gIkOTcxMjMxMjQtOWU1ZS00ZWY2LTk5NjAtMzUzNzg3N2QzMTBl2AIF4AIB&sid=3439b60092e6917d40d363dcb25052e7&aid=304142"},
{"latlon": "48.07366800,7.35589800", "address": "\n2 rue du Landeck, 68000 Colmar, France\n", "url": "https://www.booking.com/hotel/fr/le-clos-bartholdi.fr.html?label=gen173nr-1FCAEoggI46AdIDVgEaBWIAQGYAQ24ARjIAQ_YAQHoAQH4AQKIAgGoAgS4Ap2NkJMGwAIB0gIkOTcxMjMxMjQtOWU1ZS00ZWY2LTk5NjAtMzUzNzg3N2QzMTBl2AIF4AIB&sid=3439b60092e6917d40d363dcb25052e7&aid=304142"},
{"latlon": "48.07891558,7.36514839", "address": "\n2 RUE DU GRILLENBREIT, 68000 Colmar, France\n", "url": "https://www.booking.com/hotel/fr/appart-39-odalys-la-rose-d-39-argent.fr.html?label=gen173nr-1FCAEoggI46AdIDVgEaBWIAQGYAQ24ARjIAQ_YAQHoAQH4AQKIAgGoAgS4Ap2NkJMGwAIB0gIkOTcxMjMxMjQtOWU1ZS00ZWY2LTk5NjAtMzUzNzg3N2QzMTBl2AIF4AIB&sid=3439b60092e6917d40d363dcb25052e7&aid=304142"},
{"latlon": "48.11247800,7.36766875", "address": "\n1B rue des Fr\u00e8res Lumi\u00e8re, 68000 Colmar, France\n", "url": "https://www.booking.com/hotel/fr/roi-soleil.fr.html?label=gen173nr-1FCAEoggI46AdIDVgEaBWIAQGYAQ24ARjIAQ_YAQHoAQH4AQKIAgGoAgS4Ap2NkJMGwAIB0gIkOTcxMjMxMjQtOWU1ZS00ZWY2LTk5NjAtMzUzNzg3N2QzMTBl2AIF4AIB&sid=3439b60092e6917d40d363dcb25052e7&aid=304142"},
{"latlon": "48.08601523,7.35729933", "address": "\n2 Rue De La Fecht, 68000 Colmar, France\n", "url": "https://www.booking.com/hotel/fr/kyriad-colmar-cita-c-administrative.fr.html?label=gen173nr-1FCAEoggI46AdIDVgEaBWIAQGYAQ24ARjIAQ_YAQHoAQH4AQKIAgGoAgS4Ap2NkJMGwAIB0gIkOTcxMjMxMjQtOWU1ZS00ZWY2LTk5NjAtMzUzNzg3N2QzMTBl2AIF4AIB&sid=3439b60092e6917d40d363dcb25052e7&aid=304142"},
{"latlon": "48.08745399,7.36068696", "address": "\n38, Route De S\u00e9lestat, 68000 Colmar, France\n", "url": "https://www.booking.com/hotel/fr/arc-en-ciel-hexagone.fr.html?label=gen173nr-1FCAEoggI46AdIDVgEaBWIAQGYAQ24ARjIAQ_YAQHoAQH4AQKIAgGoAgS4Ap2NkJMGwAIB0gIkOTcxMjMxMjQtOWU1ZS00ZWY2LTk5NjAtMzUzNzg3N2QzMTBl2AIF4AIB&sid=3439b60092e6917d40d363dcb25052e7&aid=304142"},
{"latlon": "48.07376803,7.35829376", "address": "\n7 rue Turenne, 68000 Colmar, France\n", "url": "https://www.booking.com/hotel/fr/colombiercolmar.fr.html?label=gen173nr-1FCAEoggI46AdIDVgEaBWIAQGYAQ24ARjIAQ_YAQHoAQH4AQKIAgGoAgS4Ap2NkJMGwAIB0gIkOTcxMjMxMjQtOWU1ZS00ZWY2LTk5NjAtMzUzNzg3N2QzMTBl2AIF4AIB&sid=3439b60092e6917d40d363dcb25052e7&aid=304142"},